id,name,country_code,country_name,state_code,type,latitude,longitude
3901,Badakhshan,AF,Afghanistan,BDS,province,36.7347725,70.8119953
3871,Badghis,AF,Afghanistan,BDG,province,35.1671339,63.7695384
3875,Baghlan,AF,Afghanistan,BGL,province,36.1789026,68.7453064
3884,Balkh,AF,Afghanistan,BAL,province,36.7550603,66.8975372
3872,Bamyan,AF,Afghanistan,BAM,province,34.8100067,67.8212104
3892,Daykundi,AF,Afghanistan,DAY,province,33.669495,66.0463534
3899,Farah,AF,Afghanistan,FRA,province,32.495328,62.2626627
3889,Faryab,AF,Afghanistan,FYB,province,36.0795613,64.905955
3870,Ghazni,AF,Afghanistan,GHA,province,33.5450587,68.4173972
3888,Ghōr,AF,Afghanistan,GHO,province,34.0995776,64.905955
3873,Helmand,AF,Afghanistan,HEL,province,39.2989361,-76.6160472
3887,Herat,AF,Afghanistan,HER,province,34.352865,62.2040287
3886,Jowzjan,AF,Afghanistan,JOW,province,36.8969692,65.6658568
3902,Kabul,AF,Afghanistan,KAB,province,34.5553494,69.207486
3890,Kandahar,AF,Afghanistan,KAN,province,31.628871,65.7371749
3879,Kapisa,AF,Afghanistan,KAP,province,34.9810572,69.6214562
3878,Khost,AF,Afghanistan,KHO,province,33.3338472,69.9371673
3876,Kunar,AF,Afghanistan,KNR,province,34.8465893,71.097317
3900,Kunduz Province,AF,Afghanistan,KDZ,province,36.7285511,68.8678982
3891,Laghman,AF,Afghanistan,LAG,province,34.6897687,70.1455805
3897,Logar,AF,Afghanistan,LOG,province,34.0145518,69.1923916
3882,Nangarhar,AF,Afghanistan,NAN,province,34.1718313,70.6216794
3896,Nimruz,AF,Afghanistan,NIM,province,31.0261488,62.4504154
3880,Nuristan,AF,Afghanistan,NUR,province,35.3250223,70.9071236
3894,Paktia,AF,Afghanistan,PIA,province,33.706199,69.3831079
3877,Paktika,AF,Afghanistan,PKA,province,32.2645386,68.5247149
3881,Panjshir,AF,Afghanistan,PAN,province,38.8802391,-77.1717238
3895,Parwan,AF,Afghanistan,PAR,province,34.9630977,68.8108849
3883,Samangan,AF,Afghanistan,SAM,province,36.3155506,67.9642863
3885,Sar-e Pol,AF,Afghanistan,SAR,province,36.216628,65.93336
3893,Takhar,AF,Afghanistan,TAK,province,36.6698013,69.4784541
3898,Urozgan,AF,Afghanistan,URU,province,32.9271287,66.1415263
3874,Zabul,AF,Afghanistan,ZAB,province,32.1918782,67.1894488
5298,Brändö,AX,Aland Islands,,municipality,60.4125908,21.0229942
5294,Eckerö,AX,Aland Islands,,municipality,60.2231814,19.5389379
5289,Finström,AX,Aland Islands,,municipality,60.2299321,19.9674636
5295,Föglö,AX,Aland Islands,,municipality,60.0146277,20.3933407
5296,Geta,AX,Aland Islands,,municipality,60.3749727,19.8265962
5292,Hammarland,AX,Aland Islands,,municipality,60.2164183,19.7196403
5288,Jomala,AX,Aland Islands,,municipality,60.1522391,19.8747981
5301,Kökar,AX,Aland Islands,,municipality,59.920817,20.8885302
5300,Kumlinge,AX,Aland Islands,,municipality,60.2599272,20.75875
5290,Lemland,AX,Aland Islands,,municipality,60.0688705,20.065814
5299,Lumparland,AX,Aland Islands,,municipality,60.1152357,20.241428
5287,Mariehamn,AX,Aland Islands,,municipality,60.0945578,19.795053
5291,Saltvik,AX,Aland Islands,,municipality,60.2755446,20.0413192
5302,Sottunga,AX,Aland Islands,,municipality,60.1307977,20.6459821
5293,Sund,AX,Aland Islands,,municipality,60.2308476,19.8239705
5297,Vårdö,AX,Aland Islands,,municipality,60.2423396,20.3528105
629,Berat,AL,Albania,BR,district,40.7086377,19.9437314
603,Berat,AL,Albania,1,county,40.6953012,20.0449662
607,Bulqizë,AL,Albania,BU,district,41.4942587,20.2147157
618,Delvinë,AL,Albania,DL,district,39.9481364,20.0955891
608,Devoll,AL,Albania,DV,district,40.6447347,20.9506636
610,Dibër,AL,Albania,9,county,41.5888163,20.2355647
605,Dibër,AL,Albania,DI,district,41.5888163,20.2355647
639,Durrës,AL,Albania,DR,district,41.3706517,19.5211063
632,Durrës,AL,Albania,2,county,41.5080972,19.6163185
598,Elbasan,AL,Albania,3,county,41.1266672,20.2355647
627,Fier,AL,Albania,FR,district,40.727504,19.5627596
631,Fier,AL,Albania,4,county,40.9191392,19.6639309
621,Gjirokastër,AL,Albania,GJ,district,40.0672874,20.1045229
604,Gjirokastër,AL,Albania,5,county,40.0672874,20.1045229
617,Gramsh,AL,Albania,GR,district,40.8669873,20.1849323
600,Has,AL,Albania,HA,district,42.7901336,-83.6122012
594,Kavajë,AL,Albania,KA,district,41.1844529,19.5627596
628,Kolonjë,AL,Albania,ER,district,40.3373262,20.6794676
630,Korçë,AL,Albania,6,county,40.590567,20.6168921
597,Korçë,AL,Albania,KO,district,40.590567,20.6168921
614,Krujë,AL,Albania,KR,district,41.5094765,19.7710732
612,Kuçovë,AL,Albania,KC,district,40.7837063,19.8782348
623,Kukës,AL,Albania,KU,district,42.0807464,20.4142923
601,Kukës,AL,Albania,7,county,42.0807464,20.4142923
622,Kurbin,AL,Albania,KB,district,41.6412644,19.705595
609,Lezhë,AL,Albania,8,county,41.7813759,19.8067916
595,Lezhë,AL,Albania,LE,district,41.786073,19.6460758
596,Librazhd,AL,Albania,LB,district,41.1829232,20.3174769
599,Lushnjë,AL,Albania,LU,district,40.941983,19.6996428
602,Malësi e Madhe,AL,Albania,MM,district,42.4245173,19.6163185
637,Mallakastër,AL,Albania,MK,district,40.5273376,19.7829791
635,Mat,AL,Albania,MT,district,41.5937675,19.9973244
638,Mirditë,AL,Albania,MR,district,41.764286,19.9020509
619,Peqin,AL,Albania,PQ,district,41.0470902,19.7502384
625,Përmet,AL,Albania,PR,district,40.2361837,20.3517334
606,Pogradec,AL,Albania,PG,district,40.9015314,20.6556289
620,Pukë,AL,Albania,PU,district,42.0469772,19.8960968
624,Sarandë,AL,Albania,SR,district,39.8592119,20.0271001
611,Shkodër,AL,Albania,10,county,42.150371,19.6639309
626,Shkodër,AL,Albania,SH,district,42.0692985,19.5032559
593,Skrapar,AL,Albania,SK,district,40.5349946,20.2832217
616,Tepelenë,AL,Albania,TE,district,40.2966632,20.0181673
633,Tirana,AL,Albania,TR,district,41.3275459,19.8186982
615,Tirana,AL,Albania,11,county,41.2427598,19.8067916
636,Tropojë,AL,Albania,TP,district,42.3982151,20.1625955
634,Vlorë,AL,Albania,12,county,40.150096,19.8067916
613,Vlorë,AL,Albania,VL,district,40.4660668,19.491356
1118,Adrar,DZ,Algeria,1,province,26.418131,-0.6014717
1119,Aïn Defla,DZ,Algeria,44,province,36.2509429,1.9393815
1122,Aïn Témouchent,DZ,Algeria,46,province,35.2992698,-1.1392792
1144,Algiers,DZ,Algeria,16,province,36.6997294,3.0576199
1103,Annaba,DZ,Algeria,23,province,36.8020508,7.5247243
1142,Batna,DZ,Algeria,5,province,35.5965954,5.8987139
1108,Béchar,DZ,Algeria,8,province,31.6238098,-2.2162443
1128,Béjaïa,DZ,Algeria,6,province,36.7515258,5.0556837
4909,Béni Abbès,DZ,Algeria,53,province,30.0831042,-2.8345052
1114,Biskra,DZ,Algeria,7,province,34.8449437,5.7248567
1111,Blida,DZ,Algeria,9,province,36.531123,2.8976254
4908,Bordj Baji Mokhtar,DZ,Algeria,52,province,22.966335,-3.9472732
1116,Bordj Bou Arréridj,DZ,Algeria,34,province,36.0739925,4.7630271
1104,Bouïra,DZ,Algeria,10,province,36.3691846,3.9006194
1125,Boumerdès,DZ,Algeria,35,province,36.6839559,3.6217802
1105,Chlef,DZ,Algeria,2,province,36.1693515,1.2891036
1121,Constantine,DZ,Algeria,25,province,36.3373911,6.663812
4912,Djanet,DZ,Algeria,56,province,23.8310872,8.7004672
1098,Djelfa,DZ,Algeria,17,province,34.6703956,3.2503761
1129,El Bayadh,DZ,Algeria,32,province,32.7148824,0.9056623
4905,El M'ghair,DZ,Algeria,49,province,33.9540561,5.1346418
4906,El Menia,DZ,Algeria,50,province,31.364225,2.5784495
1099,El Oued,DZ,Algeria,39,province,33.367811,6.8516511
1100,El Tarf,DZ,Algeria,36,province,36.7576678,8.3076343
1127,Ghardaïa,DZ,Algeria,47,province,32.4943741,3.64446
1137,Guelma,DZ,Algeria,24,province,36.4627444,7.4330833
1112,Illizi,DZ,Algeria,33,province,26.1690005,8.4842465
4914,In Guezzam,DZ,Algeria,58,province,20.3864323,4.7789394
4913,In Salah,DZ,Algeria,57,province,27.2149229,1.8484396
1113,Jijel,DZ,Algeria,18,province,36.7179681,5.9832577
1126,Khenchela,DZ,Algeria,40,province,35.4269404,7.1460155
1138,Laghouat,DZ,Algeria,3,province,33.8078341,2.8628294
1134,M'Sila,DZ,Algeria,28,province,35.7186646,4.5233423
1124,Mascara,DZ,Algeria,29,province,35.3904125,0.1494988
1109,Médéa,DZ,Algeria,26,province,36.2637078,2.7587857
1132,Mila,DZ,Algeria,43,province,36.3647957,6.1526985
1140,Mostaganem,DZ,Algeria,27,province,35.9583054,0.3371889
1102,Naama,DZ,Algeria,45,province,33.2667317,-0.3128659
1101,Oran,DZ,Algeria,31,province,35.6082351,-0.563609
1139,Ouargla,DZ,Algeria,30,province,32.2264863,5.7299821
4907,Ouled Djellal,DZ,Algeria,51,province,34.4178221,4.9685843
1136,Oum El Bouaghi,DZ,Algeria,4,province,35.8688789,7.1108266
1130,Relizane,DZ,Algeria,48,province,35.7383405,0.7532809
1123,Saïda,DZ,Algeria,20,province,34.8415207,0.1456055
1141,Sétif,DZ,Algeria,19,province,36.3073389,5.5617279
4902,Sidi Bel Abbès,DZ,Algeria,22,province,34.6806024,-1.0999495
1110,Skikda,DZ,Algeria,21,province,36.6721198,6.8350999
1143,Souk Ahras,DZ,Algeria,41,province,36.2801062,7.9384033
1135,Tamanghasset,DZ,Algeria,11,province,22.7902972,5.5193268
1117,Tébessa,DZ,Algeria,12,province,35.1290691,7.9592863
1106,Tiaret,DZ,Algeria,14,province,35.3708689,1.3217852
4910,Timimoun,DZ,Algeria,54,province,29.678906,0.5004608
1120,Tindouf,DZ,Algeria,37,province,27.8063119,-5.7299821
1115,Tipasa,DZ,Algeria,42,province,36.546265,2.1843285
1133,Tissemsilt,DZ,Algeria,38,province,35.6053781,1.813098
1131,Tizi Ouzou,DZ,Algeria,15,province,36.706911,4.2333355
1107,Tlemcen,DZ,Algeria,13,province,34.6780284,-1.366216
4911,Touggourt,DZ,Algeria,55,province,33.1248476,5.7832715
488,Andorra la Vella,AD,Andorra,7,parish,42.5063174,1.5218355
489,Canillo,AD,Andorra,2,parish,42.5978249,1.6566377
487,Encamp,AD,Andorra,3,parish,42.5359764,1.5836773
492,Escaldes-Engordany,AD,Andorra,8,parish,42.4909379,1.5886966
493,La Massana,AD,Andorra,4,parish,42.545625,1.5147392
491,Ordino,AD,Andorra,5,parish,42.5994433,1.5402327
490,Sant Julià de Lòria,AD,Andorra,6,parish,42.4529631,1.4918235
221,Bengo,AO,Angola,BGO,province,-9.1042257,13.7289167
218,Benguela,AO,Angola,BGU,province,-12.8003744,13.914399
212,Bié,AO,Angola,BIE,province,-12.5727907,17.668887
228,Cabinda,AO,Angola,CAB,province,-5.0248749,12.3463875
226,Cuando Cubango,AO,Angola,CCU,province,-16.4180824,18.8076195
216,Cuanza,AO,Angola,CUS,province,-10.595191,15.4068079
217,Cuanza Norte,AO,Angola,CNO,province,-9.2398513,14.6587821
215,Cunene,AO,Angola,CNN,province,-16.2802221,16.1580937
213,Huambo,AO,Angola,HUA,province,-12.5268221,15.5943388
225,Huíla,AO,Angola,HUI,province,-14.9280553,14.6587821
222,Luanda,AO,Angola,LUA,province,-9.035088,13.2663479
223,Lunda Norte,AO,Angola,LNO,province,-8.3525022,19.1880047
220,Lunda Sul,AO,Angola,LSU,province,-10.2866578,20.7122465
227,Malanje,AO,Angola,MAL,province,-9.8251183,16.912251
219,Moxico,AO,Angola,MOX,province,-13.4293579,20.3308814
224,Uíge,AO,Angola,UIG,province,-7.1736732,15.4068079
214,Zaire,AO,Angola,ZAI,province,-6.5733458,13.1740348
5273,Blowing Point,AI,Anguilla,,district,18.1765553,-63.1021296
5274,East End,AI,Anguilla,,district,18.2356173,-63.0149715
5275,George Hill,AI,Anguilla,,district,18.1997811,-63.0776114
5276,Island Harbour,AI,Anguilla,,district,18.2552125,-63.014059
5277,North Hill,AI,Anguilla,,district,18.2050863,-63.0858457
5278,North Side,AI,Anguilla,,district,18.2300544,-63.051889
5279,Sandy Ground,AI,Anguilla,,district,18.2018551,-63.0973471
5280,Sandy Hill,AI,Anguilla,,district,18.218921,-63.0129916
5281,South Hill,AI,Anguilla,,district,18.1892475,-63.0976367
5282,Stoney Ground,AI,Anguilla,,district,18.2179101,-63.0496986
5283,The Farrington,AI,Anguilla,,district,18.2134701,-63.0272162
5284,The Quarter,AI,Anguilla,,district,18.2145334,-63.0564489
5285,The Valley,AI,Anguilla,,district,18.2152166,-63.0700628
5286,West End,AI,Anguilla,,district,18.1715394,-63.1719127
3708,Barbuda,AG,Antigua and Barbuda,10,dependency,17.6266242,-61.7713028
3703,Redonda,AG,Antigua and Barbuda,11,dependency,16.938416,-62.3455148
3709,Saint George,AG,Antigua and Barbuda,3,parish,,
3706,Saint John,AG,Antigua and Barbuda,4,parish,,
3707,Saint Mary,AG,Antigua and Barbuda,5,parish,,
3705,Saint Paul,AG,Antigua and Barbuda,6,parish,,
3704,Saint Peter,AG,Antigua and Barbuda,7,parish,,
3710,Saint Philip,AG,Antigua and Barbuda,8,parish,40.4368258,-80.0685532
3656,Buenos Aires,AR,Argentina,B,province,-37.2017285,-59.8410697
3647,Catamarca,AR,Argentina,K,province,-28.4715877,-65.7877209
3640,Chaco,AR,Argentina,H,province,-27.4257175,-59.0243784
3651,Chubut,AR,Argentina,U,province,-43.2934246,-65.1114818
4880,Ciudad Autónoma de Buenos Aires,AR,Argentina,C,city,-34.6036844,-58.3815591
3642,Córdoba,AR,Argentina,X,province,-31.3992876,-64.2643842
3638,Corrientes,AR,Argentina,W,province,-27.4692131,-58.8306349
3654,Entre Ríos,AR,Argentina,E,province,-31.7746654,-60.4956461
3652,Formosa,AR,Argentina,P,province,-26.1894804,-58.2242806
3645,Jujuy,AR,Argentina,Y,province,-24.1843397,-65.302177
3655,La Pampa,AR,Argentina,L,province,-36.6147573,-64.2839209
3653,La Rioja,AR,Argentina,F,province,-29.4193793,-66.8559932
3646,Mendoza,AR,Argentina,M,province,-32.8894587,-68.8458386
3644,Misiones,AR,Argentina,N,province,-27.4269255,-55.9467076
3648,Neuquén,AR,Argentina,Q,province,-38.94587,-68.0730925
3639,Río Negro,AR,Argentina,R,province,-40.8261434,-63.0266339
3643,Salta,AR,Argentina,A,province,-24.7997688,-65.4150367
3634,San Juan,AR,Argentina,J,province,-31.5316976,-68.5676962
3636,San Luis,AR,Argentina,D,province,-33.2962042,-66.3294948
3649,Santa Cruz,AR,Argentina,Z,province,-51.6352821,-69.2474353
3641,Santa Fe,AR,Argentina,S,province,-31.5855109,-60.7238016
3635,Santiago del Estero,AR,Argentina,G,province,-27.7833574,-64.264167
3650,Tierra del Fuego,AR,Argentina,V,province,-54.8053998,-68.3242061
3637,Tucumán,AR,Argentina,T,province,-26.8221127,-65.2192903
2023,Aragatsotn,AM,Armenia,AG,region,40.3347301,44.3748296
2024,Ararat,AM,Armenia,AR,region,39.9139415,44.7200004
2026,Armavir,AM,Armenia,AV,region,40.1554631,44.0372446
2028,Gegharkunik,AM,Armenia,GR,region,40.3526426,45.1260414
2033,Kotayk,AM,Armenia,KT,region,40.5410214,44.7690148
2029,Lori,AM,Armenia,LO,region,40.9698452,44.4900138
2031,Shirak,AM,Armenia,SH,region,40.9630814,43.8102461
2027,Syunik,AM,Armenia,SU,region,39.5133112,46.3393234
2032,Tavush,AM,Armenia,TV,region,40.8866296,45.339349
2025,Vayots Dzor,AM,Armenia,VD,region,39.7641996,45.3337528
2030,Yerevan,AM,Armenia,ER,city,40.1872023,44.515209
5243,Noord,AW,Aruba,,region,12.5824329,-70.0676118
5245,Oranjestad East,AW,Aruba,,region,12.5133181,-70.0504818
5244,Oranjestad West,AW,Aruba,,region,12.5352293,-70.0628404
5246,Paradera,AW,Aruba,,region,12.5362871,-70.0148511
5247,San Nicolaas Noord,AW,Aruba,,region,12.4642717,-69.9434939
5248,San Nicolaas Zuid,AW,Aruba,,region,12.4278558,-69.9381079
5249,Santa Cruz,AW,Aruba,,region,12.5112836,-69.9876966
5250,Savaneta,AW,Aruba,,region,12.4618419,-69.9855858
3907,Australian Capital Territory,AU,Australia,ACT,territory,-35.4734679,149.0123679
3909,New South Wales,AU,Australia,NSW,state,-31.2532183,146.921099
3910,Northern Territory,AU,Australia,NT,territory,-19.4914108,132.5509603
3905,Queensland,AU,Australia,QLD,state,-20.9175738,142.7027956
3904,South Australia,AU,Australia,SA,state,-30.0002315,136.2091547
3908,Tasmania,AU,Australia,TAS,state,-41.4545196,145.9706647
3903,Victoria,AU,Australia,VIC,state,-36.4856423,140.9779425
3906,Western Australia,AU,Australia,WA,state,-27.6728168,121.6283098
2062,Burgenland,AT,Austria,1,state,47.1537165,16.2688797
2057,Carinthia,AT,Austria,2,state,46.722203,14.1805882
2065,Lower Austria,AT,Austria,3,state,48.108077,15.8049558
2061,Salzburg,AT,Austria,5,state,47.80949,13.05501
2059,Styria,AT,Austria,6,state,47.3593442,14.4699827
2064,Tyrol,AT,Austria,7,state,47.2537414,11.601487
2058,Upper Austria,AT,Austria,4,state,48.025854,13.9723665
2060,Vienna,AT,Austria,9,state,48.2081743,16.3738189
2063,Vorarlberg,AT,Austria,8,state,47.2497427,9.9797373
540,Absheron,AZ,Azerbaijan,ABS,district,40.3629693,49.2736815
559,Agdam,AZ,Azerbaijan,AGM,district,39.9931853,46.9949562
553,Agdash,AZ,Azerbaijan,AGS,district,40.6335427,47.467431
577,Aghjabadi,AZ,Azerbaijan,AGC,district,28.7891841,77.5160788
543,Agstafa,AZ,Azerbaijan,AGA,district,41.2655933,45.5134291
547,Agsu,AZ,Azerbaijan,AGU,district,40.5283339,48.3650835
528,Astara,AZ,Azerbaijan,AST,district,38.4937845,48.6944365
575,Babek,AZ,Azerbaijan,BAB,district,39.1507613,45.4485368
552,Baku,AZ,Azerbaijan,BA,municipality,40.4092617,49.8670924
560,Balakan,AZ,Azerbaijan,BAL,district,41.7037509,46.4044213
569,Barda,AZ,Azerbaijan,BAR,district,40.3706555,47.1378909
554,Beylagan,AZ,Azerbaijan,BEY,district,39.7723073,47.6154166
532,Bilasuvar,AZ,Azerbaijan,BIL,district,39.4598833,48.5509813
561,Dashkasan,AZ,Azerbaijan,DAS,district,40.5202257,46.0779304
527,Fizuli,AZ,Azerbaijan,FUZ,district,39.5378605,47.3033877
585,Ganja,AZ,Azerbaijan,GA,municipality,36.3687338,-95.9985767
589,Gədəbəy,AZ,Azerbaijan,GAD,district,40.5699639,45.8106883
573,Gobustan,AZ,Azerbaijan,QOB,district,40.5326104,48.927375
551,Goranboy,AZ,Azerbaijan,GOR,district,40.5380506,46.5990891
531,Goychay,AZ,Azerbaijan,GOY,district,40.6236168,47.7403034
574,Goygol,AZ,Azerbaijan,GYG,district,40.5595378,46.3314953
571,Hajigabul,AZ,Azerbaijan,HAC,district,40.039377,48.9202533
544,Imishli,AZ,Azerbaijan,IMI,district,39.8694686,48.0665218
564,Ismailli,AZ,Azerbaijan,ISM,district,40.7429936,48.2125556
570,Jabrayil,AZ,Azerbaijan,CAB,district,39.2645544,46.9621562
578,Jalilabad,AZ,Azerbaijan,CAL,district,39.2051632,48.5100604
572,Julfa,AZ,Azerbaijan,CUL,district,38.9604983,45.6292939
525,Kalbajar,AZ,Azerbaijan,KAL,district,40.1024329,46.0364872
567,Kangarli,AZ,Azerbaijan,KAN,district,39.387194,45.1639852
590,Khachmaz,AZ,Azerbaijan,XAC,district,41.4591168,48.8020626
537,Khizi,AZ,Azerbaijan,XIZ,district,40.9109489,49.0729264
524,Khojali,AZ,Azerbaijan,XCI,district,39.9132553,46.794305
549,Kurdamir,AZ,Azerbaijan,KUR,district,40.3698651,48.1644626
541,Lachin,AZ,Azerbaijan,LAC,district,39.6383414,46.5460853
587,Lankaran,AZ,Azerbaijan,LAN,municipality,38.7528669,48.8475015
558,Lankaran,AZ,Azerbaijan,LA,district,38.7528669,48.8475015
546,Lerik,AZ,Azerbaijan,LER,district,38.7736192,48.4151483
568,Martuni,AZ,Azerbaijan,XVD,district,39.7914693,47.1100814
555,Masally,AZ,Azerbaijan,MAS,district,39.0340722,48.6589354
580,Mingachevir,AZ,Azerbaijan,MI,municipality,40.7702563,47.0496015
562,Nakhchivan,AZ,Azerbaijan,NX,autonomous republic,39.3256814,45.4912648
530,Neftchala,AZ,Azerbaijan,NEF,district,39.3881052,49.2413743
556,Oghuz,AZ,Azerbaijan,OGU,district,41.0727924,47.4650672
534,Ordubad,AZ,Azerbaijan,ORD,district,38.9021622,46.0237625
542,Qabala,AZ,Azerbaijan,QAB,district,40.9253925,47.8016106
526,Qakh,AZ,Azerbaijan,QAX,district,41.4206827,46.9320184
521,Qazakh,AZ,Azerbaijan,QAZ,district,41.0971074,45.3516331
563,Quba,AZ,Azerbaijan,QBA,district,41.1564242,48.4135021
548,Qubadli,AZ,Azerbaijan,QBI,district,39.2713996,46.6354312
588,Qusar,AZ,Azerbaijan,QUS,district,41.4266886,48.4345577
557,Saatly,AZ,Azerbaijan,SAT,district,39.9095503,48.3595122
565,Sabirabad,AZ,Azerbaijan,SAB,district,39.9870663,48.4692545
522,Sadarak,AZ,Azerbaijan,SAD,district,39.7105114,44.8864277
545,Salyan,AZ,Azerbaijan,SAL,district,28.3524811,82.12784
536,Samukh,AZ,Azerbaijan,SMX,district,40.7604631,46.4063181
591,Shabran,AZ,Azerbaijan,SBN,district,41.2228376,48.8457304
579,Shahbuz,AZ,Azerbaijan,SAH,district,39.4452103,45.6568009
518,Shaki,AZ,Azerbaijan,SA,district,41.1974753,47.1571241
586,Shaki,AZ,Azerbaijan,SAK,district,41.1134662,47.1316927
529,Shamakhi,AZ,Azerbaijan,SMI,district,40.6318731,48.6363801
583,Shamkir,AZ,Azerbaijan,SKR,district,40.8288144,46.0166879
535,Sharur,AZ,Azerbaijan,SAR,district,39.5536332,44.984568
520,Shirvan,AZ,Azerbaijan,SR,municipality,39.9469707,48.9223919
592,Shusha,AZ,Azerbaijan,SUS,district,39.7537438,46.7464755
584,Siazan,AZ,Azerbaijan,SIY,district,41.0783833,49.1118477
582,Sumqayit,AZ,Azerbaijan,SM,municipality,40.5854765,49.6317411
519,Tartar,AZ,Azerbaijan,TAR,district,40.3443875,46.9376519
533,Tovuz,AZ,Azerbaijan,TOV,district,40.9954523,45.6165907
539,Ujar,AZ,Azerbaijan,UCA,district,40.5067525,47.6489641
550,Yardymli,AZ,Azerbaijan,YAR,district,38.9058917,48.2496127
538,Yevlakh,AZ,Azerbaijan,YE,municipality,40.6196638,47.1500324
523,Yevlakh,AZ,Azerbaijan,YEV,district,40.6196638,47.1500324
581,Zangilan,AZ,Azerbaijan,ZAN,district,39.0856899,46.6524728
566,Zaqatala,AZ,Azerbaijan,ZAQ,district,41.5906889,46.7240373
576,Zardab,AZ,Azerbaijan,ZAR,district,40.2148114,47.714944
1992,Capital,BH,Bahrain,13,governorate,,
1996,Central,BH,Bahrain,16,governorate,26.1426093,50.5653294
1995,Muharraq,BH,Bahrain,15,governorate,26.2685653,50.6482517
1994,Northern,BH,Bahrain,17,governorate,26.1551914,50.4825173
1993,Southern,BH,Bahrain,14,governorate,25.9381018,50.5756887
807,Barisal ,BD,Bangladesh,A,division,22.3811131,90.3371889
803,Chittagong ,BD,Bangladesh,B,division,23.1793157,91.9881527
760,Dhaka ,BD,Bangladesh,C,division,23.9535742,90.1494988
775,Khulna ,BD,Bangladesh,D,division,22.8087816,89.2467191
758,Mymensingh ,BD,Bangladesh,H,division,24.71362,90.4502368
753,Rajshahi ,BD,Bangladesh,E,division,24.7105776,88.9413865
750,Rangpur ,BD,Bangladesh,F,division,25.8483388,88.9413865
765,Sylhet ,BD,Bangladesh,G,division,24.7049811,91.6760691
1228,Christ Church,BB,Barbados,1,parish,36.0060407,-95.921121
1229,Saint Andrew,BB,Barbados,2,parish,,
1226,Saint George,BB,Barbados,3,parish,37.0965278,-113.5684164
1224,Saint James,BB,Barbados,4,parish,48.523566,-1.3237885
1227,Saint John,BB,Barbados,5,parish,45.2733153,-66.063308
1223,Saint Joseph,BB,Barbados,6,parish,39.7674578,-94.846681
1221,Saint Lucy,BB,Barbados,7,parish,38.7614625,-77.4491439
1230,Saint Michael,BB,Barbados,8,parish,36.035977,-95.849052
1222,Saint Peter,BB,Barbados,9,parish,37.0827119,-94.517125
1220,Saint Philip,BB,Barbados,10,parish,35.233114,-89.4364042
1225,Saint Thomas,BB,Barbados,11,parish,18.3380965,-64.8940946
2959,Brest,BY,Belarus,BR,oblast,52.5296641,25.460648
2955,Gomel,BY,Belarus,HO,oblast,52.1648754,29.1333251
2956,Grodno,BY,Belarus,HR,oblast,53.6599945,25.3448571
2957,Minsk,BY,Belarus,MI,oblast,54.1067889,27.4129245
2958,Minsk,BY,Belarus,HM,city,53.9006011,27.558972
2954,Mogilev,BY,Belarus,MA,oblast,53.5101791,30.4006444
2960,Vitebsk,BY,Belarus,VI,oblast,55.2959833,28.7583627
1381,Antwerp,BE,Belgium,VAN,province,51.2194475,4.4024643
1376,Brussels-Capital ,BE,Belgium,BRU,region,50.8503463,4.3517211
1377,East Flanders,BE,Belgium,VOV,province,51.0362101,3.7373124
1373,Flanders,BE,Belgium,VLG,province,51.0108706,3.7264613
1374,Flemish Brabant,BE,Belgium,VBR,province,50.8815434,4.564597
1375,Hainaut,BE,Belgium,WHT,province,50.5257076,4.0621017
1384,Liège,BE,Belgium,WLG,province,50.6325574,5.5796662
1372,Limburg,BE,Belgium,VLI,province,,
1379,Luxembourg,BE,Belgium,WLX,province,49.965,5.501
1378,Namur,BE,Belgium,WNA,province,50.4673883,4.8719854
1380,Wallonia,BE,Belgium,WAL,region,50.4175637,4.4510066
1382,Walloon Brabant,BE,Belgium,WBR,province,50.633241,4.524315
1383,West Flanders,BE,Belgium,VWV,province,51.0404747,2.9994213
264,Belize,BZ,Belize,BZ,district,17.5677679,-88.4016041
269,Cayo,BZ,Belize,CY,district,17.0984445,-88.9413865
266,Corozal,BZ,Belize,CZL,district,18.1349238,-88.2461183
268,Orange Walk,BZ,Belize,OW,district,17.760353,-88.864698
265,Stann Creek,BZ,Belize,SC,district,16.8116631,-88.4016041
267,Toledo,BZ,Belize,TOL,district,16.2491923,-88.864698
3077,Alibori,BJ,Benin,AL,department,10.9681093,2.7779813
3076,Atakora,BJ,Benin,AK,department,10.7954931,1.6760691
3079,Atlantique,BJ,Benin,AQ,department,6.6588391,2.2236667
3078,Borgou,BJ,Benin,BO,department,9.5340864,2.7779813
3070,Collines,BJ,Benin,CO,department,8.3022297,2.302446
3072,Donga,BJ,Benin,DO,department,9.7191867,1.6760691
3071,Kouffo,BJ,Benin,KO,department,7.0035894,1.7538817
3081,Littoral,BJ,Benin,LI,department,6.3806973,2.4406387
3075,Mono,BJ,Benin,MO,department,37.9218608,-118.9528645
3080,Ouémé,BJ,Benin,OU,department,6.6148152,2.4999918
3074,Plateau,BJ,Benin,PL,department,7.3445141,2.539603
3073,Zou,BJ,Benin,ZO,department,7.3469268,2.0665197
4860,Devonshire,BM,Bermuda,DEV,municipality,32.3038062,-64.7606954
4861,Hamilton,BM,Bermuda,HA,municipality,32.3449432,-64.72365
4863,Paget,BM,Bermuda,PAG,municipality,32.281074,-64.7784787
4864,Pembroke,BM,Bermuda,PEM,municipality,32.3007672,-64.796263
4866,Saint George's,BM,Bermuda,SGE,municipality,17.1257759,-62.5619811
4867,Sandys,BM,Bermuda,SAN,municipality,32.2999528,-64.8674103
4868,Smith's,BM,Bermuda,SMI,municipality,32.3133966,-64.7310588
4869,Southampton,BM,Bermuda,SOU,municipality,32.2540095,-64.8259058
4870,Warwick,BM,Bermuda,WAR,municipality,32.2661534,-64.8081198
240,Bumthang ,BT,Bhutan,33,district,27.641839,90.6773046
239,Chukha ,BT,Bhutan,12,district,27.0784304,89.4742177
238,Dagana ,BT,Bhutan,22,district,27.0322861,89.8879304
229,Gasa ,BT,Bhutan,GA,district,28.0185886,89.9253233
232,Haa ,BT,Bhutan,13,district,27.2651669,89.1705998
234,Lhuntse ,BT,Bhutan,44,district,27.8264989,91.135302
242,Mongar ,BT,Bhutan,42,district,27.2617059,91.2891036
237,Paro ,BT,Bhutan,11,district,27.4285949,89.4166516
244,Pemagatshel ,BT,Bhutan,43,district,27.002382,91.3469247
235,Punakha ,BT,Bhutan,23,district,27.6903716,89.8879304
243,Samdrup Jongkhar ,BT,Bhutan,45,district,26.8035682,91.5039207
246,Samtse ,BT,Bhutan,14,district,27.0291832,89.0561532
247,Sarpang ,BT,Bhutan,31,district,26.9373041,90.4879916
241,Thimphu ,BT,Bhutan,15,district,27.4712216,89.6339041
5242,Trashi Yangtse	,BT,Bhutan,TY,district,27.717585,91.1981102
236,Trashigang ,BT,Bhutan,41,district,27.2566795,91.7538817
245,Trongsa ,BT,Bhutan,32,district,27.5002269,90.5080634
230,Tsirang ,BT,Bhutan,21,district,27.032207,90.1869644
231,Wangdue Phodrang ,BT,Bhutan,24,district,27.4526046,90.0674928
233,Zhemgang ,BT,Bhutan,34,district,27.076975,90.8294002
3375,Beni,BO,Bolivia,B,department,-14.3782747,-65.0957792
3382,Chuquisaca,BO,Bolivia,H,department,-20.0249144,-64.1478236
3381,Cochabamba,BO,Bolivia,C,department,-17.5681675,-65.475736
3380,La Paz,BO,Bolivia,L,department,,
3376,Oruro,BO,Bolivia,O,department,-18.5711579,-67.7615983
3379,Pando,BO,Bolivia,N,department,-10.7988901,-66.9988011
3383,Potosí,BO,Bolivia,P,department,-20.624713,-66.9988011
3377,Santa Cruz,BO,Bolivia,S,department,-16.7476037,-62.0750998
3378,Tarija,BO,Bolivia,T,department,-21.5831595,-63.9586111
5086,Bonaire,BQ,"Bonaire, Sint Eustatius and Saba",BQ1,special municipality,12.2018902,-68.2623822
5087,Saba,BQ,"Bonaire, Sint Eustatius and Saba",BQ2,special municipality,17.6354642,-63.2326763
5088,Sint Eustatius,BQ,"Bonaire, Sint Eustatius and Saba",BQ3,special municipality,17.4890306,-62.973555
472,Bosnian Podrinje,BA,Bosnia and Herzegovina,5,canton,43.68749,18.8244394
460,Brčko,BA,Bosnia and Herzegovina,BRC,district,44.8405944,18.742153
471,Canton 10,BA,Bosnia and Herzegovina,10,canton,43.9534155,16.9425187
462,Central Bosnia,BA,Bosnia and Herzegovina,6,canton,44.1381856,17.6866714
467,Federation of Bosnia and Herzegovina,BA,Bosnia and Herzegovina,BIH,entity,43.8874897,17.842793
463,Herzegovina-Neretva,BA,Bosnia and Herzegovina,7,canton,43.5265159,17.763621
464,Posavina,BA,Bosnia and Herzegovina,2,canton,45.0752094,18.3776304
470,Republika Srpska,BA,Bosnia and Herzegovina,SRP,entity,44.7280186,17.3148136
466,Sarajevo,BA,Bosnia and Herzegovina,9,canton,43.8512564,18.2953442
461,Tuzla,BA,Bosnia and Herzegovina,3,canton,44.5343463,18.6972797
465,Una-Sana,BA,Bosnia and Herzegovina,1,canton,44.6503116,16.3171629
469,West Herzegovina,BA,Bosnia and Herzegovina,8,canton,43.4369244,17.3848831
468,Zenica-Doboj,BA,Bosnia and Herzegovina,4,canton,44.2127109,18.1604625
3067,Central,BW,Botswana,CE,district,,
3061,Ghanzi,BW,Botswana,GH,district,-21.8652314,21.8568586
3066,Kgalagadi,BW,Botswana,KG,district,-24.7550285,21.8568586
3062,Kgatleng,BW,Botswana,KL,district,-24.1970445,26.2304616
3069,Kweneng,BW,Botswana,KW,district,-23.8367249,25.2837585
3060,Ngamiland,BW,Botswana,NG,city,-19.1905321,23.0011989
3068,North-East,BW,Botswana,NE,district,37.5884461,-94.6863782
3065,North-West,BW,Botswana,NW,district,39.3446307,-76.6854283
3064,South-East,BW,Botswana,SE,district,31.2163798,-82.3527044
3063,Southern,BW,Botswana,SO,district,,
2012,Acre,BR,Brazil,AC,state,-9.023796,-70.811995
2007,Alagoas,BR,Brazil,AL,state,-9.5713058,-36.7819505
1999,Amapá,BR,Brazil,AP,state,0.9019925,-52.0029565
2004,Amazonas,BR,Brazil,AM,state,-3.07,-61.66
2002,Bahia,BR,Brazil,BA,state,-11.409874,-41.280857
2016,Ceará,BR,Brazil,CE,state,-5.4983977,-39.3206241
2017,Distrito Federal,BR,Brazil,DF,federal district,-15.7997654,-47.8644715
2018,Espírito Santo,BR,Brazil,ES,state,-19.1834229,-40.3088626
2000,Goiás,BR,Brazil,GO,state,-15.8270369,-49.8362237
2015,Maranhão,BR,Brazil,MA,state,-4.9609498,-45.2744159
2011,Mato Grosso,BR,Brazil,MT,state,-12.6818712,-56.921099
2010,Mato Grosso do Sul,BR,Brazil,MS,state,-20.7722295,-54.7851531
1998,Minas Gerais,BR,Brazil,MG,state,-18.512178,-44.5550308
2009,Pará,BR,Brazil,PA,state,-1.9981271,-54.9306152
2005,Paraíba,BR,Brazil,PB,state,-7.2399609,-36.7819505
2022,Paraná,BR,Brazil,PR,state,-25.2520888,-52.0215415
2006,Pernambuco,BR,Brazil,PE,state,-8.8137173,-36.954107
2008,Piauí,BR,Brazil,PI,state,-7.7183401,-42.7289236
1997,Rio de Janeiro,BR,Brazil,RJ,state,-22.9068467,-43.1728965
2019,Rio Grande do Norte,BR,Brazil,RN,state,-5.4025803,-36.954107
2001,Rio Grande do Sul,BR,Brazil,RS,state,-30.0346316,-51.2176986
2013,Rondônia,BR,Brazil,RO,state,-11.5057341,-63.580611
4858,Roraima,BR,Brazil,RR,state,2.7375971,-62.0750998
2014,Santa Catarina,BR,Brazil,SC,state,-27.33,-49.44
2021,São Paulo,BR,Brazil,SP,state,-23.5505199,-46.6333094
2003,Sergipe,BR,Brazil,SE,state,-10.5740934,-37.3856581
2020,Tocantins,BR,Brazil,TO,state,-10.17528,-48.2982474
1217,Belait,BN,Brunei,BE,district,4.3750749,114.6192899
1216,Brunei-Muara,BN,Brunei,BM,district,4.9311206,114.9516869
1218,Temburong,BN,Brunei,TE,district,4.6204128,115.141484
1219,Tutong,BN,Brunei,TU,district,4.7140373,114.6667939
4699,Blagoevgrad,BG,Bulgaria,1,district,42.0208614,23.0943356
4715,Burgas,BG,Bulgaria,2,district,42.5048,27.4626079
4718,Dobrich,BG,Bulgaria,8,district,43.572786,27.8272802
4693,Gabrovo,BG,Bulgaria,7,district,42.86847,25.316889
4704,Haskovo,BG,Bulgaria,26,district,41.9344178,25.5554672
4702,Kardzhali,BG,Bulgaria,9,district,41.6338416,25.3776687
4703,Kyustendil,BG,Bulgaria,10,district,42.2868799,22.6939635
4710,Lovech,BG,Bulgaria,11,district,43.1367798,24.7139335
4696,Montana,BG,Bulgaria,12,district,43.4085148,23.2257589
4712,Pazardzhik,BG,Bulgaria,13,district,42.1927567,24.3336226
4695,Pernik,BG,Bulgaria,14,district,42.605199,23.0377916
4706,Pleven,BG,Bulgaria,15,district,43.4170169,24.6066708
4701,Plovdiv,BG,Bulgaria,16,district,42.1354079,24.7452904
4698,Razgrad,BG,Bulgaria,17,district,43.5271705,26.5241228
4713,Ruse,BG,Bulgaria,18,district,43.8355964,25.9656144
4882,Shumen,BG,Bulgaria,27,district,43.2712398,26.9361286
4708,Silistra,BG,Bulgaria,19,district,44.1147101,27.2671454
4700,Sliven,BG,Bulgaria,20,district,42.6816702,26.3228569
4694,Smolyan,BG,Bulgaria,21,district,41.5774148,24.7010871
4719,Sofia,BG,Bulgaria,23,district,42.67344,23.8334937
4705,Sofia City,BG,Bulgaria,22,district,42.7570109,23.4504683
4707,Stara Zagora,BG,Bulgaria,24,district,42.4257709,25.6344855
4714,Targovishte,BG,Bulgaria,25,district,43.2462349,26.5691251
4717,Varna,BG,Bulgaria,3,district,43.2046477,27.9105488
4709,Veliko Tarnovo,BG,Bulgaria,4,district,43.0756539,25.61715
4697,Vidin,BG,Bulgaria,5,district,43.9961739,22.8679515
4711,Vratsa,BG,Bulgaria,6,district,43.2101806,23.552921
4716,Yambol,BG,Bulgaria,28,district,42.4841494,26.5035296
3160,Balé,BF,Burkina Faso,BAL,province,11.7820602,-3.0175712
3155,Bam,BF,Burkina Faso,BAM,province,13.446133,-1.5983959
3120,Banwa,BF,Burkina Faso,BAN,province,12.1323053,-4.1513764
3152,Bazèga,BF,Burkina Faso,BAZ,province,11.9767692,-1.443469
3138,Boucle du Mouhoun,BF,Burkina Faso,1,region,12.4166,-3.4195527
3121,Bougouriba,BF,Burkina Faso,BGR,province,10.8722646,-3.3388917
3131,Boulgou,BF,Burkina Faso,BLG,province,11.4336766,-0.3748354
3153,Cascades,BF,Burkina Faso,2,region,10.4072992,-4.5624426
3136,Centre,BF,Burkina Faso,3,region,,
3162,Centre-Est,BF,Burkina Faso,4,region,11.5247674,-0.1494988
3127,Centre-Nord,BF,Burkina Faso,5,region,13.1724464,-0.9056623
3115,Centre-Ouest,BF,Burkina Faso,6,region,11.8798466,-2.302446
3149,Centre-Sud,BF,Burkina Faso,7,region,11.5228911,-1.0586135
3167,Comoé,BF,Burkina Faso,COM,province,10.4072992,-4.5624426
3158,Est,BF,Burkina Faso,8,region,12.4365526,0.9056623
3148,Ganzourgou,BF,Burkina Faso,GAN,province,12.2537648,-0.7532809
3122,Gnagna,BF,Burkina Faso,GNA,province,12.8974992,0.0746767
3143,Gourma,BF,Burkina Faso,GOU,province,12.1624473,0.6773046
3165,Hauts-Bassins,BF,Burkina Faso,9,region,11.4942003,-4.2333355
3129,Houet,BF,Burkina Faso,HOU,province,11.1320447,-4.2333355
3135,Ioba,BF,Burkina Faso,IOB,province,11.0562034,-3.0175712
3168,Kadiogo,BF,Burkina Faso,KAD,province,12.3425897,-1.443469
3112,Kénédougou,BF,Burkina Faso,KEN,province,11.3919395,-4.976654
3132,Komondjari,BF,Burkina Faso,KMD,province,12.7126527,0.6773046
3157,Kompienga,BF,Burkina Faso,KMP,province,11.5238362,0.7532809
3146,Kossi,BF,Burkina Faso,KOS,province,12.960458,-3.9062688
3133,Koulpélogo,BF,Burkina Faso,KOP,province,11.5247674,0.1494988
3161,Kouritenga,BF,Burkina Faso,KOT,province,12.1631813,-0.2244662
3147,Kourwéogo,BF,Burkina Faso,KOW,province,12.7077495,-1.7538817
3159,Léraba,BF,Burkina Faso,LER,province,10.6648785,-5.3102505
3151,Loroum,BF,Burkina Faso,LOR,province,13.8129814,-2.0665197
3123,Mouhoun,BF,Burkina Faso,MOU,province,12.1432381,-3.3388917
3116,Nahouri,BF,Burkina Faso,NAO,province,11.2502267,-1.135302
3113,Namentenga,BF,Burkina Faso,NAM,province,13.0812584,-0.5257823
3142,Nayala,BF,Burkina Faso,NAY,province,12.6964558,-3.0175712
3164,Nord,BF,Burkina Faso,10,region,13.718252,-2.302446
3156,Noumbiel,BF,Burkina Faso,NOU,province,9.8440946,-2.9775558
3141,Oubritenga,BF,Burkina Faso,OUB,province,12.7096087,-1.443469
3144,Oudalan,BF,Burkina Faso,OUD,province,14.471902,-0.4502368
3117,Passoré,BF,Burkina Faso,PAS,province,12.8881221,-2.2236667
3125,Plateau-Central,BF,Burkina Faso,11,region,12.2537648,-0.7532809
3163,Poni,BF,Burkina Faso,PON,province,10.3325996,-3.3388917
3114,Sahel,BF,Burkina Faso,12,region,14.1000865,-0.1494988
3154,Sanguié,BF,Burkina Faso,SNG,province,12.1501861,-2.6983868
3126,Sanmatenga,BF,Burkina Faso,SMT,province,13.3565304,-1.0586135
3139,Séno,BF,Burkina Faso,SEN,province,14.0072234,-0.0746767
3119,Sissili,BF,Burkina Faso,SIS,province,11.2441219,-2.2236667
3166,Soum,BF,Burkina Faso,SOM,province,14.0962841,-1.366216
3137,Sourou,BF,Burkina Faso,SOR,province,13.341803,-2.9375739
3140,Sud-Ouest,BF,Burkina Faso,13,region,10.4231493,-3.2583626
3128,Tapoa,BF,Burkina Faso,TAP,province,12.2497072,1.6760691
3134,Tuy,BF,Burkina Faso,TUI,province,38.888684,-77.004719
3124,Yagha,BF,Burkina Faso,YAG,province,13.3576157,0.7532809
3150,Yatenga,BF,Burkina Faso,YAT,province,13.6249344,-2.3813621
3145,Ziro,BF,Burkina Faso,ZIR,province,11.6094995,-1.9099238
3130,Zondoma,BF,Burkina Faso,ZON,province,13.1165926,-2.4208713
3118,Zoundwéogo,BF,Burkina Faso,ZOU,province,11.6141174,-0.9820668
3196,Bubanza,BI,Burundi,BB,province,-3.1572403,29.3714909
3198,Bujumbura Mairie,BI,Burundi,BM,province,-3.3884141,29.3482646
3200,Bujumbura Rural,BI,Burundi,BL,province,-3.5090144,29.464359
3202,Bururi,BI,Burundi,BR,province,-3.9006851,29.5107708
3201,Cankuzo,BI,Burundi,CA,province,-3.1527788,30.6199895
3190,Cibitoke,BI,Burundi,CI,province,-2.8102897,29.1855785
3197,Gitega,BI,Burundi,GI,province,-3.4929051,29.9277947
3194,Karuzi,BI,Burundi,KR,province,-3.1340347,30.112735
3192,Kayanza,BI,Burundi,KY,province,-3.0077981,29.6499162
3195,Kirundo,BI,Burundi,KI,province,-2.5762882,30.112735
3188,Makamba,BI,Burundi,MA,province,-4.3257062,29.6962677
3193,Muramvya,BI,Burundi,MU,province,-3.2898398,29.6499162
3186,Muyinga,BI,Burundi,MY,province,-2.7793511,30.2974199
3187,Mwaro,BI,Burundi,MW,province,-3.5025918,29.6499162
3199,Ngozi,BI,Burundi,NG,province,-2.8958243,29.8815203
3185,Rumonge,BI,Burundi,RM,province,-3.9754049,29.4388014
3189,Rutana,BI,Burundi,RT,province,-3.8791523,30.0665236
3191,Ruyigi,BI,Burundi,RY,province,-3.446207,30.2512728
3984,Banteay Meanchey,KH,Cambodia,1,province,13.7531914,102.989615
3976,Battambang,KH,Cambodia,2,province,13.0286971,102.989615
3991,Kampong Cham,KH,Cambodia,3,province,12.0982918,105.3131185
3979,Kampong Chhnang,KH,Cambodia,4,province,12.1392352,104.5655273
3988,Kampong Speu,KH,Cambodia,5,province,11.6155109,104.3791912
5070,Kampong Thom,KH,Cambodia,6,province,12.8167485,103.8413104
3981,Kampot,KH,Cambodia,7,province,10.7325351,104.3791912
3983,Kandal,KH,Cambodia,8,province,11.2237383,105.1258955
3978,Kep,KH,Cambodia,23,province,10.536089,104.3559158
3982,Koh Kong,KH,Cambodia,9,province,11.5762804,103.3587288
3986,Kratie,KH,Cambodia,10,province,12.5043608,105.9699878
3985,Mondulkiri,KH,Cambodia,11,province,12.7879427,107.1011931
3987,Oddar Meanchey,KH,Cambodia,22,province,14.1609738,103.8216261
3980,Pailin,KH,Cambodia,24,province,12.9092962,102.6675575
3994,Phnom Penh,KH,Cambodia,12,autonomous municipality,11.5563738,104.9282099
3973,Preah Vihear,KH,Cambodia,13,province,14.0085797,104.8454619
3974,Prey Veng,KH,Cambodia,14,province,11.3802442,105.5005483
3977,Pursat,KH,Cambodia,15,province,12.2720956,103.7289167
3990,Ratanakiri,KH,Cambodia,16,province,13.8576607,107.1011931
3992,Siem Reap,KH,Cambodia,17,province,13.330266,104.1001326
3989,Sihanoukville,KH,Cambodia,18,province,10.7581899,103.8216261
3993,Stung Treng,KH,Cambodia,19,province,13.576473,105.9699878
3972,Svay Rieng,KH,Cambodia,20,province,11.142722,105.8290298
3975,Takeo,KH,Cambodia,21,province,10.9321519,104.798771
2663,Adamawa,CM,Cameroon,AD,region,9.3264751,12.3983853
2660,Centre,CM,Cameroon,CE,region,,
2661,East,CM,Cameroon,ES,region,39.0185336,-94.2792411
2656,Far North,CM,Cameroon,EN,region,66.7613451,124.123753
2662,Littoral,CM,Cameroon,LT,region,48.4622757,-68.5178071
2665,North,CM,Cameroon,NO,region,37.09024,-95.712891
2657,Northwest,CM,Cameroon,NW,region,36.3711857,-94.1934606
2659,South,CM,Cameroon,SU,region,37.631595,-97.3458409
2658,Southwest,CM,Cameroon,SW,region,36.1908813,-95.8897448
2664,West,CM,Cameroon,OU,region,37.0364989,-95.6705987
872,Alberta,CA,Canada,AB,province,53.9332706,-116.5765035
875,British Columbia,CA,Canada,BC,province,53.7266683,-127.6476205
867,Manitoba,CA,Canada,MB,province,53.7608608,-98.8138762
868,New Brunswick,CA,Canada,NB,province,46.5653163,-66.4619164
877,Newfoundland and Labrador,CA,Canada,NL,province,53.1355091,-57.6604364
878,Northwest Territories,CA,Canada,NT,territory,64.8255441,-124.8457334
874,Nova Scotia,CA,Canada,NS,province,44.6819866,-63.744311
876,Nunavut,CA,Canada,NU,territory,70.2997711,-83.107577
866,Ontario,CA,Canada,ON,province,51.253775,-85.323214
871,Prince Edward Island,CA,Canada,PE,province,46.510712,-63.4168136
873,Quebec,CA,Canada,QC,province,52.9399159,-73.5491361
870,Saskatchewan,CA,Canada,SK,province,52.9399159,-106.4508639
869,Yukon,CA,Canada,YT,territory,35.5067215,-97.7625441
2994,Barlavento Islands,CV,Cape Verde,B,geographical region,16.8236845,-23.9934881
2999,Boa Vista,CV,Cape Verde,BV,municipality,38.743466,-120.7304297
2996,Brava,CV,Cape Verde,BR,municipality,40.9897778,-73.6835715
2991,Maio,CV,Cape Verde,MA,municipality,15.2003098,-23.1679793
2987,Mosteiros,CV,Cape Verde,MO,municipality,37.8904348,-25.8207556
2997,Paul,CV,Cape Verde,PA,municipality,37.0625,-95.677068
2989,Porto Novo,CV,Cape Verde,PN,municipality,6.4968574,2.6288523
2988,Praia,CV,Cape Verde,PR,municipality,14.93305,-23.5133267
2982,Ribeira Brava,CV,Cape Verde,RB,municipality,16.6070739,-24.2033843
3002,Ribeira Grande,CV,Cape Verde,RG,municipality,37.8210369,-25.5148137
2984,Ribeira Grande de Santiago,CV,Cape Verde,RS,municipality,14.9830298,-23.6561725
2998,Sal,CV,Cape Verde,SL,municipality,26.5958122,-80.2045083
2985,Santa Catarina,CV,Cape Verde,CA,municipality,-27.2423392,-50.2188556
2995,Santa Catarina do Fogo,CV,Cape Verde,CF,municipality,14.9309104,-24.3222577
3004,Santa Cruz,CV,Cape Verde,CR,municipality,36.9741171,-122.0307963
2986,São Domingos,CV,Cape Verde,SD,municipality,15.0286165,-23.563922
3000,São Filipe,CV,Cape Verde,SF,municipality,14.8951679,-24.4945636
2993,São Lourenço dos Órgãos,CV,Cape Verde,SO,municipality,15.0537841,-23.6085612
2990,São Miguel,CV,Cape Verde,SM,municipality,37.780411,-25.4970466
3001,São Vicente,CV,Cape Verde,SV,municipality,-23.9607157,-46.3962022
2992,Sotavento Islands,CV,Cape Verde,S,geographical region,15,-24
2983,Tarrafal,CV,Cape Verde,TA,municipality,15.2760578,-23.7484077
3003,Tarrafal de São Nicolau,CV,Cape Verde,TS,municipality,16.5636498,-24.354942
5252,Cayman Brac,KY,Cayman Islands,NULL,NULL,19.719997,-79.8907266
5251,Grand Cayman,KY,Cayman Islands,NULL,NULL,19.3301271,-81.4172451
5253,Little Cayman,KY,Cayman Islands,NULL,NULL,19.6856739,-80.1183019
1259,Bamingui-Bangoran,CF,Central African Republic,BB,prefecture,8.2733455,20.7122465
1262,Bangui,CF,Central African Republic,BGF,commune,4.3946735,18.5581899
1264,Basse-Kotto,CF,Central African Republic,BK,prefecture,4.8719319,21.2845025
1258,Haut-Mbomou,CF,Central African Republic,HM,prefecture,6.2537134,25.4733554
1268,Haute-Kotto,CF,Central African Republic,HK,prefecture,7.7964379,23.3823545
1263,Kémo,CF,Central African Republic,KG,prefecture,5.8867794,19.3783206
1256,Lobaye,CF,Central African Republic,LB,prefecture,4.3525981,17.4795173
1257,Mambéré-Kadéï,CF,Central African Republic,HS,prefecture,4.7055653,15.9699878
1266,Mbomou,CF,Central African Republic,MB,prefecture,5.556837,23.7632828
1253,Nana-Grébizi,CF,Central African Republic,KB,economic prefecture,7.1848607,19.3783206
1260,Nana-Mambéré,CF,Central African Republic,NM,prefecture,5.6932135,15.2194808
1255,Ombella-M'Poko,CF,Central African Republic,MP,prefecture,5.1188825,18.4276047
1265,Ouaka,CF,Central African Republic,UK,prefecture,6.3168216,20.7122465
1254,Ouham,CF,Central African Republic,AC,prefecture,7.090911,17.668887
1267,Ouham-Pendé,CF,Central African Republic,OP,prefecture,6.4850984,16.1580937
1252,Sangha-Mbaéré,CF,Central African Republic,SE,prefecture,3.4368607,16.3463791
1261,Vakaga,CF,Central African Republic,VK,prefecture,9.5113296,22.2384017
3583,Bahr el Gazel,TD,Chad,BG,province,14.7702266,16.912251
3590,Batha,TD,Chad,BA,province,13.9371775,18.4276047
3574,Borkou,TD,Chad,BO,province,17.8688845,18.8076195
5114,Chari-Baguirmi,TD,Chad,CB,province,11.4618626,15.2446394
3575,Ennedi-Est,TD,Chad,EE,province,16.3420496,23.0011989
3584,Ennedi-Ouest,TD,Chad,EO,province,18.977563,21.8568586
3576,Guéra,TD,Chad,GR,province,11.1219015,18.4276047
3573,Hadjer-Lamis,TD,Chad,HL,province,12.4577273,16.7234639
3588,Kanem,TD,Chad,KA,province,14.8781262,15.4068079
3577,Lac,TD,Chad,LC,province,13.6915377,14.1001326
3585,Logone Occidental,TD,Chad,LO,province,8.759676,15.876004
3591,Logone Oriental,TD,Chad,LR,province,8.3149949,16.3463791
3589,Mandoul,TD,Chad,MA,province,8.603091,17.4795173
3580,Mayo-Kebbi Est,TD,Chad,ME,province,9.4046039,14.8454619
3571,Mayo-Kebbi Ouest,TD,Chad,MO,province,10.4113014,15.5943388
3570,Moyen-Chari,TD,Chad,MC,province,9.0639998,18.4276047
3586,N'Djamena,TD,Chad,ND,province,12.1348457,15.0557415
3582,Ouaddaï,TD,Chad,OD,province,13.748476,20.7122465
3592,Salamat,TD,Chad,SA,province,10.9691601,20.7122465
3572,Sila,TD,Chad,SI,province,12.13074,21.2845025
3579,Tandjilé,TD,Chad,TA,province,9.6625729,16.7234639
3587,Tibesti,TD,Chad,TI,province,21.3650031,16.912251
3581,Wadi Fira,TD,Chad,WF,province,15.0892416,21.4752851
2828,Aisén del General Carlos Ibañez del Campo,CL,Chile,AI,region,-46.378345,-72.3007623
2832,Antofagasta,CL,Chile,AN,region,-23.8369104,-69.2877535
2829,Arica y Parinacota,CL,Chile,AP,region,-18.5940485,-69.4784541
2823,Atacama,CL,Chile,AT,region,-27.5660558,-70.050314
2827,Biobío,CL,Chile,BI,region,-37.4464428,-72.1416132
2825,Coquimbo,CL,Chile,CO,region,-30.540181,-70.8119953
2826,La Araucanía,CL,Chile,AR,region,-38.948921,-72.331113
2838,Libertador General Bernardo O'Higgins,CL,Chile,LI,region,-34.5755374,-71.0022311
2835,Los Lagos,CL,Chile,LL,region,-41.9197779,-72.1416132
2834,Los Ríos,CL,Chile,LR,region,-40.2310217,-72.331113
2836,Magallanes y de la Antártica Chilena,CL,Chile,MA,region,-52.2064316,-72.1685001
2833,Maule,CL,Chile,ML,region,-35.5163603,-71.5723953
2831,Ñuble,CL,Chile,NB,region,-36.7225743,-71.7622481
2824,Región Metropolitana de Santiago,CL,Chile,RM,region,-33.4375545,-70.6504896
2837,Tarapacá,CL,Chile,TA,region,-20.2028799,-69.2877535
2830,Valparaíso,CL,Chile,VS,region,-33.047238,-71.6126885
2251,Anhui,CN,China,AH,province,30.6006773,117.9249002
2257,Beijing,CN,China,BJ,municipality,39.9041999,116.4073963
2271,Chongqing,CN,China,CQ,municipality,29.4315861,106.912251
2248,Fujian,CN,China,FJ,province,26.4836842,117.9249002
2275,Gansu,CN,China,GS,province,35.7518326,104.2861116
2279,Guangdong,CN,China,GD,province,23.3790333,113.7632828
2278,Guangxi Zhuang,CN,China,GX,autonomous region,23.7247599,108.8076195
2261,Guizhou,CN,China,GZ,province,26.8429645,107.2902839
2273,Hainan,CN,China,HI,province,19.5663947,109.949686
2280,Hebei,CN,China,HE,province,37.8956594,114.9042208
2265,Heilongjiang,CN,China,HL,province,47.1216472,128.738231
2259,Henan,CN,China,HA,province,34.2904302,113.3823545
2267,Hong Kong SAR,CN,China,HK,special administrative region,22.3193039,114.1693611
2274,Hubei,CN,China,HB,province,30.7378118,112.2384017
2258,Hunan,CN,China,HN,province,27.3683009,109.2819347
2269,Inner Mongolia,CN,China,NM,autonomous region,43.37822,115.0594815
2250,Jiangsu,CN,China,JS,province,33.1401715,119.7889248
2256,Jiangxi,CN,China,JX,province,27.0874564,114.9042208
2253,Jilin,CN,China,JL,province,43.837883,126.549572
2268,Liaoning,CN,China,LN,province,41.9436543,122.5290376
2266,Macau SAR,CN,China,MO,special administrative region,22.198745,113.543873
2262,Ningxia Huizu,CN,China,NX,autonomous region,37.198731,106.1580937
2270,Qinghai,CN,China,QH,province,35.744798,96.4077358
2272,Shaanxi,CN,China,SN,province,35.3939908,109.1880047
2252,Shandong,CN,China,SD,province,37.8006064,-122.2699918
2249,Shanghai,CN,China,SH,municipality,31.230416,121.473701
2254,Shanxi,CN,China,SX,province,37.2425649,111.8568586
2277,Sichuan,CN,China,SC,province,30.2638032,102.8054753
2255,Taiwan,CN,China,TW,province,23.69781,120.960515
2276,Tianjin,CN,China,TJ,municipality,39.1252291,117.0153435
2263,Xinjiang,CN,China,XJ,autonomous region,42.5246357,87.5395855
2264,Xizang,CN,China,XZ,autonomous region,30.1533605,88.7878678
2260,Yunnan,CN,China,YN,province,24.4752847,101.3431058
2247,Zhejiang,CN,China,ZJ,province,29.1416432,119.7889248
2895,Amazonas,CO,Colombia,AMA,department,-1.4429123,-71.5723953
2890,Antioquia,CO,Colombia,ANT,department,7.1986064,-75.3412179
2881,Arauca,CO,Colombia,ARA,department,6.547306,-71.0022311
2880,Atlántico,CO,Colombia,ATL,department,10.6966159,-74.8741045
4921,Bogotá D.C.,CO,Colombia,DC,capital district,4.2820415,-74.5027042
2893,Bolívar,CO,Colombia,BOL,department,8.6704382,-74.0300122
2903,Boyacá,CO,Colombia,BOY,department,5.454511,-73.362003
2887,Caldas,CO,Colombia,CAL,department,5.29826,-75.2479061
2891,Caquetá,CO,Colombia,CAQ,department,0.869892,-73.8419063
2892,Casanare,CO,Colombia,CAS,department,5.7589269,-71.5723953
2884,Cauca,CO,Colombia,CAU,department,2.7049813,-76.8259652
2899,Cesar,CO,Colombia,CES,department,9.3372948,-73.6536209
2876,Chocó,CO,Colombia,CHO,department,5.2528033,-76.8259652
2898,Córdoba,CO,Colombia,COR,department,8.049293,-75.57405
2875,Cundinamarca,CO,Colombia,CUN,department,5.026003,-74.0300122
2882,Guainía,CO,Colombia,GUA,department,2.585393,-68.5247149
2888,Guaviare,CO,Colombia,GUV,department,2.043924,-72.331113
4871,Huila,CO,Colombia,HUI,department,2.5359349,-75.5276699
2889,La Guajira,CO,Colombia,LAG,department,11.3547743,-72.5204827
2886,Magdalena,CO,Colombia,MAG,department,10.4113014,-74.4056612
2878,Meta,CO,Colombia,MET,department,39.7673258,-104.9753595
2897,Nariño,CO,Colombia,NAR,department,1.289151,-77.35794
2877,Norte de Santander,CO,Colombia,NSA,department,7.9462831,-72.8988069
2896,Putumayo,CO,Colombia,PUT,department,0.4359506,-75.5276699
2874,Quindío,CO,Colombia,QUI,department,4.4610191,-75.667356
2879,Risaralda,CO,Colombia,RIS,department,5.3158475,-75.9927652
2900,"San Andrés, Providencia y Santa Catalina",CO,Colombia,SAP,department,12.5567324,-81.7185253
2901,Santander,CO,Colombia,SAN,department,6.6437076,-73.6536209
2902,Sucre,CO,Colombia,SUC,department,8.813977,-74.723283
2883,Tolima,CO,Colombia,TOL,department,4.0925168,-75.1545381
2904,Valle del Cauca,CO,Colombia,VAC,department,3.8008893,-76.6412712
2885,Vaupés,CO,Colombia,VAU,department,0.8553561,-70.8119953
2894,Vichada,CO,Colombia,VID,department,4.4234452,-69.2877535
2821,Anjouan,KM,Comoros,A,island,-12.2138145,44.4370606
2822,Grande Comore,KM,Comoros,G,island,-11.7167338,43.3680788
2820,Mohéli,KM,Comoros,M,island,-12.3377376,43.7334089
2866,Bouenza,CG,Congo,11,department,-4.1128079,13.7289167
2870,Brazzaville,CG,Congo,BZV,department,-4.2633597,15.2428853
2864,Cuvette,CG,Congo,8,department,-0.2877446,16.1580937
2869,Cuvette-Ouest,CG,Congo,15,department,0.144755,14.4723301
2867,Kouilou,CG,Congo,5,department,-4.1428413,11.8891721
2868,Lékoumou,CG,Congo,2,department,-3.170382,13.3587288
2865,Likouala,CG,Congo,7,department,2.043924,17.668887
2872,Niari,CG,Congo,9,department,-3.18427,12.2547919
2862,Plateaux,CG,Congo,14,department,-2.0680088,15.4068079
2863,Pointe-Noire,CG,Congo,16,department,-4.7691623,11.866362
2873,Pool,CG,Congo,12,department,-3.7762628,14.8454619
2871,Sangha,CG,Congo,13,department,1.4662328,15.4068079
1215,Alajuela,CR,Costa Rica,A,province,10.391583,-84.4382721
1211,Cartago,CR,Costa Rica,C,province,9.8622311,-83.9214187
1209,Guanacaste,CR,Costa Rica,G,province,10.6267399,-85.4436706
1212,Heredia,CR,Costa Rica,H,province,10.473523,-84.0167423
1213,Limón,CR,Costa Rica,L,province,9.9896398,-83.0332417
1210,Puntarenas,CR,Costa Rica,P,province,9.2169531,-83.336188
1214,San José,CR,Costa Rica,SJ,province,9.9129727,-84.0768294
2634,Abidjan,CI,Cote D'Ivoire (Ivory Coast),AB,autonomous district,5.3599517,-4.0082563
2626,Agnéby,CI,Cote D'Ivoire (Ivory Coast),16,region,5.3224503,-4.3449529
2636,Bafing,CI,Cote D'Ivoire (Ivory Coast),17,region,8.3252047,-7.5247243
2643,Bas-Sassandra,CI,Cote D'Ivoire (Ivory Coast),BS,district,5.2798356,-6.1526985
2635,Bas-Sassandra,CI,Cote D'Ivoire (Ivory Coast),9,region,5.3567916,-6.7493993
2654,Comoé,CI,Cote D'Ivoire (Ivory Coast),CM,district,5.552793,-3.2583626
2644,Denguélé,CI,Cote D'Ivoire (Ivory Coast),DN,district,48.0707763,-68.5609341
2642,Denguélé,CI,Cote D'Ivoire (Ivory Coast),10,region,9.4662372,-7.4381355
2645,Dix-Huit Montagnes,CI,Cote D'Ivoire (Ivory Coast),6,region,7.3762373,-7.4381355
2633,Fromager,CI,Cote D'Ivoire (Ivory Coast),18,region,45.5450213,-73.6046223
2651,Gôh-Djiboua,CI,Cote D'Ivoire (Ivory Coast),GD,district,5.8711393,-5.5617279
2638,Haut-Sassandra,CI,Cote D'Ivoire (Ivory Coast),2,region,6.8757848,-6.5783387
2640,Lacs,CI,Cote D'Ivoire (Ivory Coast),7,region,47.7395866,-70.4186652
2632,Lacs,CI,Cote D'Ivoire (Ivory Coast),LC,district,48.1980169,-80.4564412
2639,Lagunes,CI,Cote D'Ivoire (Ivory Coast),1,region,5.8827334,-4.2333355
2627,Lagunes,CI,Cote D'Ivoire (Ivory Coast),LG,district,5.8827334,-4.2333355
2631,Marahoué,CI,Cote D'Ivoire (Ivory Coast),12,region,6.8846207,-5.8987139
2629,Montagnes,CI,Cote D'Ivoire (Ivory Coast),MG,district,7.3762373,-7.4381355
2646,Moyen-Cavally,CI,Cote D'Ivoire (Ivory Coast),19,region,6.5208793,-7.6114217
2630,Moyen-Comoé,CI,Cote D'Ivoire (Ivory Coast),5,region,6.6514917,-3.5003454
2655,N'zi-Comoé,CI,Cote D'Ivoire (Ivory Coast),11,region,7.2456749,-4.2333355
2648,Sassandra-Marahoué,CI,Cote D'Ivoire (Ivory Coast),SM,district,6.8803348,-6.2375947
2625,Savanes,CI,Cote D'Ivoire (Ivory Coast),3,region,,
2628,Sud-Bandama,CI,Cote D'Ivoire (Ivory Coast),15,region,5.5357083,-5.5617279
2652,Sud-Comoé,CI,Cote D'Ivoire (Ivory Coast),13,region,5.552793,-3.2583626
2647,Vallée du Bandama,CI,Cote D'Ivoire (Ivory Coast),4,region,8.278978,-4.8935627
2637,Vallée du Bandama,CI,Cote D'Ivoire (Ivory Coast),VB,district,8.278978,-4.8935627
2650,Woroba,CI,Cote D'Ivoire (Ivory Coast),WR,district,8.2491372,-6.9209135
2649,Worodougou,CI,Cote D'Ivoire (Ivory Coast),14,region,8.2548962,-6.5783387
2653,Yamoussoukro,CI,Cote D'Ivoire (Ivory Coast),YM,district,6.8276228,-5.2893433
2641,Zanzan,CI,Cote D'Ivoire (Ivory Coast),ZZ,district,8.8207904,-3.4195527
734,Bjelovar-Bilogora,HR,Croatia,7,county,45.8987972,16.8423093
737,Brod-Posavina,HR,Croatia,12,county,45.2637951,17.3264562
728,Dubrovnik-Neretva,HR,Croatia,19,county,43.0766588,17.5268471
743,Istria,HR,Croatia,18,county,45.1286455,13.901542
5069,Karlovac,HR,Croatia,4,county,45.2613352,15.52542016
742,Koprivnica-Križevci,HR,Croatia,6,county,46.1568919,16.8390826
729,Krapina-Zagorje,HR,Croatia,2,county,46.1013393,15.8809693
731,Lika-Senj,HR,Croatia,9,county,44.6192218,15.4701608
726,Međimurje,HR,Croatia,20,county,46.3766644,16.4213298
740,Osijek-Baranja,HR,Croatia,14,county,45.5576428,18.3942141
724,Požega-Slavonia,HR,Croatia,11,county,45.3417868,17.8114359
735,Primorje-Gorski Kotar,HR,Croatia,8,county,45.3173996,14.8167466
730,Šibenik-Knin,HR,Croatia,15,county,43.9281485,16.1037694
733,Sisak-Moslavina,HR,Croatia,3,county,45.3837926,16.5380994
725,Split-Dalmatia,HR,Croatia,17,county,43.5240328,16.8178377
739,Varaždin,HR,Croatia,5,county,46.2317473,16.3360559
732,Virovitica-Podravina,HR,Croatia,10,county,45.6557985,17.7932472
741,Vukovar-Syrmia,HR,Croatia,16,county,45.1773552,18.8053527
727,Zadar,HR,Croatia,13,county,44.146939,15.6164943
736,Zagreb,HR,Croatia,1,county,45.8706612,16.395491
738,Zagreb,HR,Croatia,21,city,45.8150108,15.9819189
283,Artemisa,CU,Cuba,15,province,22.7522903,-82.9931607
286,Camagüey,CU,Cuba,9,province,21.2167247,-77.7452081
282,Ciego de Ávila,CU,Cuba,8,province,21.9329515,-78.5660852
287,Cienfuegos,CU,Cuba,6,province,22.2379783,-80.365865
275,Granma,CU,Cuba,12,province,20.3844902,-76.6412712
285,Guantánamo,CU,Cuba,14,province,20.1455917,-74.8741045
272,Havana,CU,Cuba,3,province,23.0540698,-82.345189
279,Holguín,CU,Cuba,11,province,20.7837893,-75.8069082
278,Isla de la Juventud,CU,Cuba,99,special municipality,21.7084737,-82.8220232
281,Las Tunas,CU,Cuba,10,province,21.0605162,-76.9182097
284,Matanzas,CU,Cuba,4,province,22.5767123,-81.3399414
276,Mayabeque,CU,Cuba,16,province,22.8926529,-81.9534815
277,Pinar del Río,CU,Cuba,1,province,22.4076256,-83.8473015
274,Sancti Spíritus,CU,Cuba,7,province,21.9938214,-79.4703885
273,Santiago de Cuba,CU,Cuba,13,province,20.2397682,-75.9927652
280,Villa Clara,CU,Cuba,5,province,22.4937204,-79.9192702
749,Famagusta (Mağusa),CY,Cyprus,4,district,35.2857023,33.8411288
744,Kyrenia (Keryneia),CY,Cyprus,6,district,35.299194,33.2363246
747,Larnaca (Larnaka),CY,Cyprus,3,district,34.8507206,33.4831906
748,Limassol (Leymasun),CY,Cyprus,2,district,34.7071301,33.0226174
745,Nicosia (Lefkoşa),CY,Cyprus,1,district,35.1855659,33.3822764
746,Paphos (Pafos),CY,Cyprus,5,district,34.9164594,32.4920088
4627,Benešov,CZ,Czech Republic,201,district,49.6900828,14.7764399
4620,Beroun,CZ,Czech Republic,202,district,49.9573428,13.9840715
4615,Blansko,CZ,Czech Republic,641,district,49.3648502,16.6477552
4542,Břeclav,CZ,Czech Republic,644,district,48.75314,16.8825169
4568,Brno-město,CZ,Czech Republic,642,district,49.1950602,16.6068371
4545,Brno-venkov,CZ,Czech Republic,643,district,49.1250138,16.4558824
4644,Bruntál,CZ,Czech Republic,801,district,49.9881767,17.4636941
4633,Česká Lípa,CZ,Czech Republic,511,district,50.6785201,14.5396991
4556,České Budějovice,CZ,Czech Republic,311,district,48.9775553,14.5150747
4543,Český Krumlov,CZ,Czech Republic,312,district,48.8127354,14.3174657
4573,Cheb,CZ,Czech Republic,411,district,50.0795334,12.3698636
4553,Chomutov,CZ,Czech Republic,422,district,50.4583872,13.301791
4634,Chrudim,CZ,Czech Republic,531,district,49.8830216,15.8290866
4609,Děčín,CZ,Czech Republic,421,district,50.7725563,14.2127612
4641,Domažlice,CZ,Czech Republic,321,district,49.4397027,12.9311435
4559,Frýdek-Místek,CZ,Czech Republic,802,district,49.6819305,18.3673216
4611,Havlíčkův Brod,CZ,Czech Republic,631,district,49.6043364,15.5796552
4561,Hodonín,CZ,Czech Republic,645,district,48.8529391,17.1260025
4580,Hradec Králové,CZ,Czech Republic,521,district,50.2414805,15.6743
4612,Jablonec nad Nisou,CZ,Czech Republic,512,district,50.7220528,15.1703135
4625,Jeseník,CZ,Czech Republic,711,district,50.2246249,17.1980471
4640,Jičín,CZ,Czech Republic,522,district,50.4353325,15.361044
4613,Jihlava,CZ,Czech Republic,632,district,49.3983782,15.5870415
4639,Jihočeský kraj,CZ,Czech Republic,31,region,48.9457789,14.4416055
4602,Jihomoravský kraj,CZ,Czech Republic,64,region,48.9544528,16.7676899
4624,Jindřichův Hradec,CZ,Czech Republic,313,district,49.1444823,15.0061389
4581,Karlovarský kraj,CZ,Czech Republic,41,region,50.1435,12.7501899
4604,Karlovy Vary,CZ,Czech Republic,412,district,50.1435,12.7501899
4586,Karviná,CZ,Czech Republic,803,district,49.8566524,18.5432186
4631,Kladno,CZ,Czech Republic,203,district,50.1940258,14.1043657
4591,Klatovy,CZ,Czech Republic,322,district,49.3955549,13.2950937
4618,Kolín,CZ,Czech Republic,204,district,49.9883293,15.0551977
4575,Kraj Vysočina,CZ,Czech Republic,63,region,49.4490052,15.6405934
4614,Královéhradecký kraj,CZ,Czech Republic,52,region,50.3512484,15.7976459
4593,Kroměříž,CZ,Czech Republic,721,district,49.2916582,17.39938
4923,Kutná Hora,CZ,Czech Republic,205,district,49.9492089,15.247044
4590,Liberec,CZ,Czech Republic,513,district,50.7564101,14.9965041
4601,Liberecký kraj,CZ,Czech Republic,51,region,50.659424,14.7632424
4605,Litoměřice,CZ,Czech Republic,423,district,50.5384197,14.1305458
4617,Louny,CZ,Czech Republic,424,district,50.3539812,13.8033551
4638,Mělník,CZ,Czech Republic,206,district,50.3104415,14.5179223
4643,Mladá Boleslav,CZ,Czech Republic,207,district,50.4252317,14.9362477
4600,Moravskoslezský kraj,CZ,Czech Republic,80,region,49.7305327,18.2332637
4629,Most,CZ,Czech Republic,425,district,37.1554083,-94.2948884
4550,Náchod,CZ,Czech Republic,523,district,50.4145722,16.1656347
4548,Nový Jičín,CZ,Czech Republic,804,district,49.5943251,18.0135356
4582,Nymburk,CZ,Czech Republic,208,district,50.1855816,15.0436604
4574,Olomouc,CZ,Czech Republic,712,district,49.593778,17.2508787
4589,Olomoucký kraj,CZ,Czech Republic,71,region,49.6586549,17.0811406
4623,Opava,CZ,Czech Republic,805,district,49.9083757,17.916338
4584,Ostrava-město,CZ,Czech Republic,806,district,49.8209226,18.2625243
4547,Pardubice,CZ,Czech Republic,532,district,49.9444479,16.2856916
4588,Pardubický kraj,CZ,Czech Republic,53,region,49.9444479,16.2856916
4645,Pelhřimov,CZ,Czech Republic,633,district,49.4306207,15.222983
4560,Písek,CZ,Czech Republic,314,district,49.3419938,14.246976
4608,Plzeň-jih,CZ,Czech Republic,324,district,49.5904885,13.5715861
4544,Plzeň-město,CZ,Czech Republic,323,district,49.7384314,13.3736371
4564,Plzeň-sever,CZ,Czech Republic,325,district,49.8774893,13.2537428
4607,Plzeňský kraj,CZ,Czech Republic,32,region,49.4134812,13.3157246
4578,Prachatice,CZ,Czech Republic,315,district,49.01091,14.0000005
4606,Praha-východ,CZ,Czech Republic,209,district,49.9389307,14.7924472
4619,Praha-západ,CZ,Czech Republic,20A,district,49.8935235,14.3293779
4598,"Praha, Hlavní město",CZ,Czech Republic,10,capital city,50.0755381,14.4378005
4626,Přerov,CZ,Czech Republic,714,district,49.4671356,17.5077332
4546,Příbram,CZ,Czech Republic,20B,district,49.6947959,14.082381
4551,Prostějov,CZ,Czech Republic,713,district,49.4418401,17.1277904
4558,Rakovník,CZ,Czech Republic,20C,district,50.106123,13.7396623
4583,Rokycany,CZ,Czech Republic,326,district,49.8262827,13.6874943
4636,Rychnov nad Kněžnou,CZ,Czech Republic,524,district,50.1659651,16.2776842
4596,Semily,CZ,Czech Republic,514,district,50.6051576,15.3281409
4595,Sokolov,CZ,Czech Republic,413,district,50.2013434,12.6054636
4628,Strakonice,CZ,Czech Republic,316,district,49.2604043,13.9103085
4554,Středočeský kraj,CZ,Czech Republic,20,region,49.8782223,14.9362955
4642,Šumperk,CZ,Czech Republic,715,district,49.9778407,16.9717754
4571,Svitavy,CZ,Czech Republic,533,district,49.7551629,16.4691861
4565,Tábor,CZ,Czech Republic,317,district,49.3646293,14.7191293
4646,Tachov,CZ,Czech Republic,327,district,49.7987803,12.6361921
4621,Teplice,CZ,Czech Republic,426,district,50.6584605,13.7513227
4597,Třebíč,CZ,Czech Republic,634,district,49.2147869,15.8795516
4579,Trutnov,CZ,Czech Republic,525,district,50.5653838,15.9090923
4592,Uherské Hradiště,CZ,Czech Republic,722,district,49.0597969,17.4958501
4576,Ústecký kraj,CZ,Czech Republic,42,region,50.6119037,13.7870086
4599,Ústí nad Labem,CZ,Czech Republic,427,district,50.6119037,13.7870086
4647,Ústí nad Orlicí,CZ,Czech Republic,534,district,49.9721801,16.3996617
4572,Vsetín,CZ,Czech Republic,723,district,49.379325,18.0618162
4622,Vyškov,CZ,Czech Republic,646,district,49.2127445,16.9855927
4648,Žďár nad Sázavou,CZ,Czech Republic,635,district,49.5643012,15.939103
4563,Zlín,CZ,Czech Republic,724,district,49.1696052,17.802522
4552,Zlínský kraj,CZ,Czech Republic,72,region,49.2162296,17.7720353
4630,Znojmo,CZ,Czech Republic,647,district,48.9272327,16.1037808
2753,Bas-Uélé,CD,Democratic Republic of the Congo,BU,province,3.9901009,24.9042208
2744,Équateur,CD,Democratic Republic of the Congo,EQ,province,-1.831239,-78.183406
2750,Haut-Katanga,CD,Democratic Republic of the Congo,HK,province,-10.4102075,27.5495846
2758,Haut-Lomami,CD,Democratic Republic of the Congo,HL,province,-7.7052752,24.9042208
2734,Haut-Uélé,CD,Democratic Republic of the Congo,HU,province,3.5845154,28.299435
2751,Ituri,CD,Democratic Republic of the Congo,IT,province,1.5957682,29.4179324
2757,Kasaï,CD,Democratic Republic of the Congo,KS,province,-5.0471979,20.7122465
2742,Kasaï Central,CD,Democratic Republic of the Congo,KC,province,-8.4404591,20.4165934
2735,Kasaï Oriental,CD,Democratic Republic of the Congo,KE,province,-6.033623,23.5728501
2741,Kinshasa,CD,Democratic Republic of the Congo,KN,city,-4.4419311,15.2662931
2746,Kongo Central,CD,Democratic Republic of the Congo,BC,province,-5.2365685,13.914399
2740,Kwango,CD,Democratic Republic of the Congo,KG,province,-6.4337409,17.668887
2759,Kwilu,CD,Democratic Republic of the Congo,KL,province,-5.1188825,18.4276047
2747,Lomami,CD,Democratic Republic of the Congo,LO,province,-6.1453931,24.524264
4953,Lualaba,CD,Democratic Republic of the Congo,LU,province,-10.4808698,25.6297816
2755,Mai-Ndombe,CD,Democratic Republic of the Congo,MN,province,-2.6357434,18.4276047
2745,Maniema,CD,Democratic Republic of the Congo,MA,province,-3.0730929,26.0413889
2752,Mongala,CD,Democratic Republic of the Congo,MO,province,1.9962324,21.4752851
2749,Nord-Kivu,CD,Democratic Republic of the Congo,NK,province,-0.7917729,29.0459927
2739,Nord-Ubangi,CD,Democratic Republic of the Congo,NU,province,3.7878726,21.4752851
2743,Sankuru,CD,Democratic Republic of the Congo,SA,province,-2.8437453,23.3823545
2738,Sud-Kivu,CD,Democratic Republic of the Congo,SK,province,-3.011658,28.299435
2748,Sud-Ubangi,CD,Democratic Republic of the Congo,SU,province,3.2299942,19.1880047
2733,Tanganyika,CD,Democratic Republic of the Congo,TA,province,-6.2740118,27.9249002
2756,Tshopo,CD,Democratic Republic of the Congo,TO,province,0.5455462,24.9042208
2732,Tshuapa,CD,Democratic Republic of the Congo,TU,province,-0.9903023,23.0288844
1531,Central Denmark,DK,Denmark,82,region,56.302139,9.302777
1530,Denmark,DK,Denmark,84,region,55.6751812,12.5493261
1532,North Denmark,DK,Denmark,81,region,56.8307416,9.4930527
1529,Southern Denmark,DK,Denmark,83,region,55.3307714,9.0924903
1528,Zealand,DK,Denmark,85,region,55.4632518,11.7214979
2933,Ali Sabieh,DJ,Djibouti,AS,region,11.1928973,42.941698
2932,Arta,DJ,Djibouti,AR,region,11.5255528,42.8479474
2930,Dikhil,DJ,Djibouti,DI,region,11.1054336,42.3704744
2929,Djibouti,DJ,Djibouti,DJ,city,11.825138,42.590275
2928,Obock,DJ,Djibouti,OB,region,12.3895691,43.0194897
2931,Tadjourah,DJ,Djibouti,TA,region,11.9338885,42.3938375
4082,Saint Andrew,DM,Dominica,2,parish,,
4078,Saint David,DM,Dominica,3,parish,,
4079,Saint George,DM,Dominica,4,parish,,
4076,Saint John,DM,Dominica,5,parish,,
4085,Saint Joseph,DM,Dominica,6,parish,39.0222712,-94.7176504
4083,Saint Luke,DM,Dominica,7,parish,42.1051363,-80.0570722
4077,Saint Mark,DM,Dominica,8,parish,,
4080,Saint Patrick,DM,Dominica,9,parish,,
4084,Saint Paul,DM,Dominica,10,parish,38.86146,-90.7435619
4081,Saint Peter,DM,Dominica,11,parish,40.4524194,-80.0085056
4114,Azua,DO,Dominican Republic,2,province,18.4552709,-70.7380928
4105,Baoruco,DO,Dominican Republic,3,province,18.4879898,-71.4182249
4090,Barahona,DO,Dominican Republic,4,province,18.2139066,-71.1043759
4107,Dajabón,DO,Dominican Republic,5,province,19.5499241,-71.7086514
4095,Distrito Nacional,DO,Dominican Republic,1,district,18.4860575,-69.9312117
4113,Duarte,DO,Dominican Republic,6,province,19.2090823,-70.0270004
4086,El Seibo,DO,Dominican Republic,8,province,18.7658496,-69.040668
4102,Espaillat,DO,Dominican Republic,9,province,19.6277658,-70.2786775
4106,Hato Mayor,DO,Dominican Republic,30,province,18.7635799,-69.2557637
4089,Hermanas Mirabal,DO,Dominican Republic,19,province,19.3747559,-70.3513235
4097,Independencia,DO,Dominican Republic,10,province,32.6335748,-115.4289294
4109,La Altagracia,DO,Dominican Republic,11,province,18.5850236,-68.6201072
4087,La Romana,DO,Dominican Republic,12,province,18.4310271,-68.9837373
4116,La Vega,DO,Dominican Republic,13,province,19.2211554,-70.5288753
4094,María Trinidad Sánchez,DO,Dominican Republic,14,province,19.3734597,-69.8514439
4099,Monseñor Nouel,DO,Dominican Republic,28,province,18.9215234,-70.3836815
4115,Monte Cristi,DO,Dominican Republic,15,province,19.7396899,-71.4433984
4111,Monte Plata,DO,Dominican Republic,29,province,18.8080878,-69.7869146
4101,Pedernales,DO,Dominican Republic,16,province,17.8537626,-71.3303209
4096,Peravia,DO,Dominican Republic,17,province,18.2786594,-70.3335887
4092,Puerto Plata,DO,Dominican Republic,18,province,19.7543225,-70.8332847
4103,Samaná,DO,Dominican Republic,20,province,19.2058371,-69.3362949
4091,San Cristóbal,DO,Dominican Republic,21,province,18.4180414,-70.1065849
4112,San José de Ocoa,DO,Dominican Republic,31,province,18.543858,-70.5041816
4098,San Juan,DO,Dominican Republic,22,province,-31.5287127,-68.5360403
4110,San Pedro de Macorís,DO,Dominican Republic,23,province,18.46266,-69.3051234
4088,Sánchez Ramírez,DO,Dominican Republic,24,province,19.052706,-70.1492264
4108,Santiago,DO,Dominican Republic,25,province,-33.45,-70.6667
4100,Santiago Rodríguez,DO,Dominican Republic,26,province,19.4713181,-71.3395801
4093,Santo Domingo,DO,Dominican Republic,32,province,18.5104253,-69.8404054
4104,Valverde,DO,Dominican Republic,27,province,19.5881221,-70.980331
2923,Azuay,EC,Ecuador,A,province,-2.8943068,-78.9968344
2920,Bolívar,EC,Ecuador,B,province,-1.7095828,-79.0450429
2917,Cañar,EC,Ecuador,F,province,-2.5589315,-78.9388191
2915,Carchi,EC,Ecuador,C,province,0.5026912,-77.9042521
2925,Chimborazo,EC,Ecuador,H,province,-1.6647995,-78.6543255
2921,Cotopaxi,EC,Ecuador,X,province,-0.8384206,-78.6662678
2924,El Oro,EC,Ecuador,O,province,-3.2592413,-79.9583541
2922,Esmeraldas,EC,Ecuador,E,province,0.9681789,-79.6517202
2905,Galápagos,EC,Ecuador,W,province,-0.9537691,-90.9656019
2914,Guayas,EC,Ecuador,G,province,-1.9574839,-79.9192702
2911,Imbabura,EC,Ecuador,I,province,0.3499768,-78.1260129
5068,Loja,EC,Ecuador,L,province,-3.99313,-79.20422
2910,Los Ríos,EC,Ecuador,R,province,-1.0230607,-79.4608897
2913,Manabí,EC,Ecuador,M,province,-1.0543434,-80.452644
2918,Morona-Santiago,EC,Ecuador,S,province,-2.3051062,-78.1146866
2916,Napo,EC,Ecuador,N,province,-0.9955964,-77.8129684
2926,Orellana,EC,Ecuador,D,province,-0.4545163,-76.9950286
2907,Pastaza,EC,Ecuador,Y,province,-1.4882265,-78.0031057
2927,Pichincha,EC,Ecuador,P,province,-0.1464847,-78.4751945
2912,Santa Elena,EC,Ecuador,SE,province,-2.2267105,-80.859499
2919,Santo Domingo de los Tsáchilas,EC,Ecuador,SD,province,-0.2521882,-79.1879383
2906,Sucumbíos,EC,Ecuador,U,province,0.0889231,-76.8897557
2908,Tungurahua,EC,Ecuador,T,province,-1.2635284,-78.5660852
2909,Zamora Chinchipe,EC,Ecuador,Z,province,-4.0655892,-78.9503525
3235,Alexandria,EG,Egypt,ALX,governorate,30.8760568,29.742604
3225,Aswan,EG,Egypt,ASN,governorate,23.6966498,32.7181375
3236,Asyut,EG,Egypt,AST,governorate,27.2133831,31.4456179
3241,Beheira,EG,Egypt,BH,governorate,30.8480986,30.3435506
3230,Beni Suef,EG,Egypt,BNS,governorate,28.8938837,31.4456179
3223,Cairo,EG,Egypt,C,governorate,29.9537564,31.5370003
3245,Dakahlia,EG,Egypt,DK,governorate,31.1656044,31.4913182
3224,Damietta,EG,Egypt,DT,governorate,31.3625799,31.6739371
3238,Faiyum,EG,Egypt,FYM,governorate,29.3084021,30.8428497
3234,Gharbia,EG,Egypt,GH,governorate,30.8753556,31.03351
3239,Giza,EG,Egypt,GZ,governorate,28.7666216,29.2320784
3244,Ismailia,EG,Egypt,IS,governorate,30.5830934,32.2653887
3222,Kafr el-Sheikh,EG,Egypt,KFS,governorate,31.3085444,30.8039474
3242,Luxor,EG,Egypt,LX,governorate,25.3944444,32.4920088
3231,Matrouh,EG,Egypt,MT,governorate,29.569635,26.419389
3243,Minya,EG,Egypt,MN,governorate,28.284729,30.5279096
3228,Monufia,EG,Egypt,MNF,governorate,30.5972455,30.9876321
3246,New Valley,EG,Egypt,WAD,governorate,24.5455638,27.1735316
3227,North Sinai,EG,Egypt,SIN,governorate,30.282365,33.617577
3229,Port Said,EG,Egypt,PTS,governorate,31.0758606,32.2653887
3232,Qalyubia,EG,Egypt,KB,governorate,30.3292368,31.2168466
3247,Qena,EG,Egypt,KN,governorate,26.2346033,32.9888319
3240,Red Sea,EG,Egypt,BA,governorate,24.6826316,34.1531947
5067,Sharqia,EG,Egypt,SHR,governorate,30.6730545,31.1593247
3226,Sohag,EG,Egypt,SHG,governorate,26.693834,32.174605
3237,South Sinai,EG,Egypt,JS,governorate,29.3101828,34.1531947
3233,Suez,EG,Egypt,SUZ,governorate,29.3682255,32.174605
4139,Ahuachapán,SV,El Salvador,AH,department,13.8216148,-89.9253233
4132,Cabañas,SV,El Salvador,CA,department,13.8648288,-88.7493998
4131,Chalatenango,SV,El Salvador,CH,department,14.1916648,-89.1705998
4137,Cuscatlán,SV,El Salvador,CU,department,13.8661957,-89.0561532
4134,La Libertad,SV,El Salvador,LI,department,13.6817661,-89.3606298
4136,La Paz,SV,El Salvador,PA,department,,
4138,La Unión ,SV,El Salvador,UN,department,13.4886443,-87.8942451
4130,Morazán,SV,El Salvador,MO,department,13.7682,-88.1291387
4135,San Miguel,SV,El Salvador,SM,department,13.4451041,-88.2461183
4133,San Salvador,SV,El Salvador,SS,department,13.7739997,-89.2086773
4127,San Vicente,SV,El Salvador,SV,department,13.5868561,-88.7493998
4128,Santa Ana,SV,El Salvador,SA,department,14.1461121,-89.5120084
4140,Sonsonate,SV,El Salvador,SO,department,13.682358,-89.6628111
4129,Usulután,SV,El Salvador,US,department,13.4470634,-88.556531
3444,Annobón,GQ,Equatorial Guinea,AN,province,-1.4268782,5.6352801
3446,Bioko Norte,GQ,Equatorial Guinea,BN,province,3.6595072,8.7921836
3443,Bioko Sur,GQ,Equatorial Guinea,BS,province,3.4209785,8.6160674
3445,Centro Sur,GQ,Equatorial Guinea,CS,province,1.3436084,10.439656
3442,Insular,GQ,Equatorial Guinea,I,region,37.09024,-95.712891
3439,Kié-Ntem,GQ,Equatorial Guinea,KN,province,2.028093,11.0711758
3441,Litoral,GQ,Equatorial Guinea,LI,province,1.5750244,9.8124935
3438,Río Muni,GQ,Equatorial Guinea,C,region,1.4610606,9.6786894
3440,Wele-Nzas,GQ,Equatorial Guinea,WN,province,1.4166162,11.0711758
3425,Anseba,ER,Eritrea,AN,region,16.4745531,37.8087693
3427,Debub,ER,Eritrea,DU,region,14.9478692,39.1543677
3428,Gash-Barka,ER,Eritrea,GB,region,15.4068825,37.6386622
3426,Maekel,ER,Eritrea,MA,region,15.3551409,38.8623683
3424,Northern Red Sea,ER,Eritrea,SK,region,16.2583997,38.8205454
3429,Southern Red Sea,ER,Eritrea,DK,region,13.5137103,41.7606472
3567,Harju,EE,Estonia,37,county,59.3334239,25.2466974
3555,Hiiu,EE,Estonia,39,county,58.9239553,22.5919468
3569,Ida-Viru,EE,Estonia,44,county,59.2592663,27.4136535
3566,Järva,EE,Estonia,51,county,58.8866713,25.5000624
3565,Jõgeva,EE,Estonia,49,county,58.7506143,26.3604878
3568,Lääne,EE,Estonia,57,county,58.9722742,23.8740834
3564,Lääne-Viru,EE,Estonia,59,county,59.3018816,26.3280312
3562,Pärnu,EE,Estonia,67,county,58.5261952,24.4020159
3563,Põlva,EE,Estonia,65,county,58.1160622,27.2066394
3559,Rapla,EE,Estonia,70,county,58.8492625,24.7346569
3561,Saare,EE,Estonia,74,county,58.4849721,22.6136408
3557,Tartu,EE,Estonia,78,county,58.4057128,26.801576
3558,Valga,EE,Estonia,82,county,57.9103441,26.1601819
3556,Viljandi,EE,Estonia,84,county,58.2821746,25.5752233
3560,Võru,EE,Estonia,86,county,57.7377372,27.1398938
969,Hhohho,SZ,Eswatini,HH,region,-26.1365662,31.3541631
970,Lubombo,SZ,Eswatini,LU,region,-26.7851773,31.8107079
968,Manzini,SZ,Eswatini,MA,region,-26.5081999,31.3713164
971,Shiselweni,SZ,Eswatini,SH,region,-26.9827577,31.3541631
11,Addis Ababa,ET,Ethiopia,AA,administration,8.9806034,38.7577605
6,Afar,ET,Ethiopia,AF,region,11.7559388,40.958688
3,Amhara,ET,Ethiopia,AM,region,11.3494247,37.9784585
9,Benishangul-Gumuz,ET,Ethiopia,BE,region,10.7802889,35.5657862
8,Dire Dawa,ET,Ethiopia,DD,administration,9.6008747,41.850142
10,Gambela,ET,Ethiopia,GA,region,7.9219687,34.1531947
7,Harari,ET,Ethiopia,HA,region,9.314866,42.1967716
5,Oromia,ET,Ethiopia,OR,region,7.5460377,40.6346851
2,Somali,ET,Ethiopia,SO,region,6.6612293,43.7908453
1,"Southern Nations, Nationalities, and Peoples'",ET,Ethiopia,SN,region,6.5156911,36.954107
4,Tigray,ET,Ethiopia,TI,region,14.0323336,38.3165725
5229,Eysturoy,FO,Faroe Islands,EY,region,62.1978737,-7.1823906
5230,Northern Isles,FO,Faroe Islands,NO,region,62.2805689,6.7017061
5231,Sandoy,FO,Faroe Islands,SA,region,61.8365169,-6.9630166
5232,Streymoy,FO,Faroe Islands,ST,region,62.123382,-7.3264108
5233,Suðuroy,FO,Faroe Islands,SU,region,61.5211816,-7.0019014
5234,Vágar,FO,Faroe Islands,VA,region,62.0899835,-7.4276837
1917,Ba,FJ,Fiji Islands,1,province,36.0613893,-95.8005872
1930,Bua,FJ,Fiji Islands,2,province,43.0964584,-89.50088
1924,Cakaudrove,FJ,Fiji Islands,3,province,-16.5814105,179.5120084
1929,Central,FJ,Fiji Islands,C,division,34.0440066,-118.2472738
1932,Eastern,FJ,Fiji Islands,E,division,32.8094305,-117.1289937
1934,Kadavu,FJ,Fiji Islands,4,province,-19.0127122,178.1876676
1933,Lau,FJ,Fiji Islands,5,province,31.6687015,-106.3955763
1916,Lomaiviti,FJ,Fiji Islands,6,province,-17.709,179.091
1922,Macuata,FJ,Fiji Islands,7,province,-16.4864922,179.2847251
1919,Nadroga-Navosa,FJ,Fiji Islands,8,province,-17.9865278,177.658113
1927,Naitasiri,FJ,Fiji Islands,9,province,-17.8975754,178.2071598
1928,Namosi,FJ,Fiji Islands,10,province,-18.0864176,178.1291387
1921,Northern,FJ,Fiji Islands,N,division,32.8768766,-117.2156345
1926,Ra,FJ,Fiji Islands,11,province,37.1003153,-95.6744246
1920,Rewa,FJ,Fiji Islands,12,province,34.7923517,-82.3609264
1931,Rotuma,FJ,Fiji Islands,R,dependency,-12.5025069,177.0724164
1925,Serua,FJ,Fiji Islands,13,province,-18.1804749,178.050979
1918,Tailevu,FJ,Fiji Islands,14,province,-17.8269111,178.293248
1923,Western,FJ,Fiji Islands,W,division,42.9662198,-78.7021134
1509,Åland Islands,FI,Finland,1,region,60.1785247,19.9156105
1511,Central Finland,FI,Finland,8,region,62.5666743,25.5549445
1494,Central Ostrobothnia,FI,Finland,7,region,63.5621735,24.0013631
1507,Finland Proper,FI,Finland,19,region,60.3627914,22.4439369
1496,Kainuu,FI,Finland,5,region,64.3736564,28.7437475
1512,Kymenlaakso,FI,Finland,9,region,60.780512,26.8829336
1500,Lapland,FI,Finland,10,region,67.9222304,26.5046438
1504,North Karelia,FI,Finland,13,region,62.8062078,30.1553887
1505,Northern Ostrobothnia,FI,Finland,14,region,65.279493,26.2890417
1503,Northern Savonia,FI,Finland,15,region,63.08448,27.0253504
1508,Ostrobothnia,FI,Finland,12,region,63.1181757,21.9061062
1502,Päijänne Tavastia,FI,Finland,16,region,61.3230041,25.7322496
1506,Pirkanmaa,FI,Finland,11,region,61.6986918,23.7895598
1501,Satakunta,FI,Finland,17,region,61.5932758,22.1483081
1497,South Karelia,FI,Finland,2,region,61.1181949,28.1024372
1498,Southern Ostrobothnia,FI,Finland,3,region,62.9433099,23.5285267
1495,Southern Savonia,FI,Finland,4,region,61.6945148,27.8005015
1493,Tavastia Proper,FI,Finland,6,region,60.907015,24.3005498
1510,Uusimaa,FI,Finland,18,region,60.21872,25.271621
4967,Ain,FR,France,1,metropolitan department,46.065086,4.888615
4968,Aisne,FR,France,2,metropolitan department,49.4528921,3.0465111
4969,Allier,FR,France,3,metropolitan department,46.3670863,2.5808277
4970,Alpes-de-Haute-Provence,FR,France,4,metropolitan department,44.1637752,5.672478
4972,Alpes-Maritimes,FR,France,6,metropolitan department,43.920417,6.6167822
4811,Alsace,FR,France,6AE,European collectivity,48.3181795,7.4416241
4973,Ardèche,FR,France,7,metropolitan department,44.8148695,3.8133483
4974,Ardennes,FR,France,8,metropolitan department,49.6975951,4.1489576
4975,Ariège,FR,France,9,metropolitan department,42.9434783,0.9404864
4976,Aube,FR,France,10,metropolitan department,48.3197547,3.5637104
4977,Aude,FR,France,11,metropolitan department,43.054114,1.9038476
4798,Auvergne-Rhône-Alpes,FR,France,ARA,metropolitan region,45.4471431,4.3852507
4978,Aveyron,FR,France,12,metropolitan department,44.3156362,2.0852379
5035,Bas-Rhin,FR,France,67,metropolitan department,48.5986444,7.0266676
4979,Bouches-du-Rhône,FR,France,13,metropolitan department,43.5403865,4.4613829
4825,Bourgogne-Franche-Comté,FR,France,BFC,metropolitan region,47.2805127,4.9994372
4807,Bretagne,FR,France,BRE,metropolitan region,48.2020471,-2.9326435
4981,Calvados,FR,France,14,metropolitan department,49.0903514,-0.9170648
4982,Cantal,FR,France,15,metropolitan department,45.0492177,2.1567272
4818,Centre-Val de Loire,FR,France,CVL,metropolitan region,47.7515686,1.6750631
4983,Charente,FR,France,16,metropolitan department,45.6658479,-0.3184577
4984,Charente-Maritime,FR,France,17,metropolitan department,45.7296828,-1.3388116
4985,Cher,FR,France,18,metropolitan department,47.0243628,1.8662732
5064,Clipperton,FR,France,CP,dependency,10.2833541,-109.2254215
4986,Corrèze,FR,France,19,metropolitan department,45.3423707,1.3171733
4806,Corse,FR,France,20R,metropolitan collectivity with special status,42.0396042,9.0128926
4996,Corse-du-Sud,FR,France,2A,metropolitan department,41.8572055,8.4109183
4987,Côte-d'Or,FR,France,21,metropolitan department,47.4651302,4.2315495
4988,Côtes-d'Armor,FR,France,22,metropolitan department,48.4663336,-3.3478961
4989,Creuse,FR,France,23,metropolitan department,46.0590394,1.431505
5047,Deux-Sèvres,FR,France,79,metropolitan department,46.5386817,-0.9019948
4990,Dordogne,FR,France,24,metropolitan department,45.1423416,0.1427408
4991,Doubs,FR,France,25,metropolitan department,46.9321774,6.3476214
4992,Drôme,FR,France,26,metropolitan department,44.7293357,4.6782158
5059,Essonne,FR,France,91,metropolitan department,48.5304615,1.9699056
4993,Eure,FR,France,27,metropolitan department,49.0754035,0.4893732
4994,Eure-et-Loir,FR,France,28,metropolitan department,48.4469784,0.8147025
4995,Finistère,FR,France,29,metropolitan department,48.226961,-4.8243733
4822,French Guiana,FR,France,973,overseas region,3.933889,-53.125782
4824,French Polynesia,FR,France,PF,overseas collectivity,-17.679742,-149.406843
5065,French Southern and Antarctic Lands,FR,France,TF,overseas territory,-47.5446604,51.2837542
4998,Gard,FR,France,30,metropolitan department,43.9595276,3.4935681
5000,Gers,FR,France,32,metropolitan department,43.6950534,-0.0999728
5001,Gironde,FR,France,33,metropolitan department,44.8958469,-1.5940532
4820,Grand-Est,FR,France,GES,metropolitan region,48.699803,6.1878074
4829,Guadeloupe,FR,France,971,overseas region,16.265,-61.551
5036,Haut-Rhin,FR,France,68,metropolitan department,47.8653774,6.6711381
4997,Haute-Corse,FR,France,2B,metropolitan department,42.4295866,8.5062561
4999,Haute-Garonne,FR,France,31,metropolitan department,43.3050555,0.6845515
5011,Haute-Loire,FR,France,43,metropolitan department,45.0853806,3.2260707
5020,Haute-Marne,FR,France,52,metropolitan department,48.1324821,4.6983499
5039,Haute-Saône,FR,France,70,metropolitan department,47.6378996,5.5355055
5043,Haute-Savoie,FR,France,74,metropolitan department,46.0445277,5.864138
5055,Haute-Vienne,FR,France,87,metropolitan department,45.9186878,0.7097206
4971,Hautes-Alpes,FR,France,5,metropolitan department,44.6562682,5.6873211
5033,Hautes-Pyrénées,FR,France,65,metropolitan department,43.1429462,-0.4009736
4828,Hauts-de-France,FR,France,HDF,metropolitan region,50.4801153,2.7937265
5060,Hauts-de-Seine,FR,France,92,metropolitan department,48.8403008,2.1012559
5002,Hérault,FR,France,34,metropolitan department,43.591112,2.8066108
4796,Île-de-France,FR,France,IDF,metropolitan region,48.8499198,2.6370411
5003,Ille-et-Vilaine,FR,France,35,metropolitan department,48.1762484,-2.2130401
5004,Indre,FR,France,36,metropolitan department,46.811755,0.9755523
5005,Indre-et-Loire,FR,France,37,metropolitan department,47.2228582,0.1489619
5006,Isère,FR,France,38,metropolitan department,45.2892271,4.9902355
5007,Jura,FR,France,39,metropolitan department,46.7828741,5.1691844
4823,La Réunion,FR,France,974,overseas region,-21.115141,55.536384
5008,Landes,FR,France,40,metropolitan department,44.009508,-1.2538579
5009,Loir-et-Cher,FR,France,41,metropolitan department,47.659376,0.8537631
5010,Loire,FR,France,42,metropolitan department,46.3522812,-1.1756339
5012,Loire-Atlantique,FR,France,44,metropolitan department,47.3475721,-2.3466312
5013,Loiret,FR,France,45,metropolitan department,47.9135431,1.760099
5014,Lot,FR,France,46,metropolitan department,44.624607,1.0357631
5015,Lot-et-Garonne,FR,France,47,metropolitan department,44.3687314,-0.0916169
5016,Lozère,FR,France,48,metropolitan department,44.5422779,2.9293459
5017,Maine-et-Loire,FR,France,49,metropolitan department,47.3890034,-1.1202527
5018,Manche,FR,France,50,metropolitan department,49.0881734,-2.4627209
5019,Marne,FR,France,51,metropolitan department,48.9610745,3.6573767
4827,Martinique,FR,France,972,overseas region,14.641528,-61.024174
5021,Mayenne,FR,France,53,metropolitan department,48.3066842,-0.6490182
4797,Mayotte,FR,France,976,overseas region,-12.8275,45.166244
5038,Métropole de Lyon,FR,France,69M,metropolitan department,45.7482629,4.5958404
5022,Meurthe-et-Moselle,FR,France,54,metropolitan department,48.9556615,5.714235
5023,Meuse,FR,France,55,metropolitan department,49.012462,4.8108734
5024,Morbihan,FR,France,56,metropolitan department,47.7439518,-3.4455524
5025,Moselle,FR,France,57,metropolitan department,49.0204566,6.2055322
5026,Nièvre,FR,France,58,metropolitan department,47.1192164,2.9779713
5027,Nord,FR,France,59,metropolitan department,50.5285477,2.6000776
4804,Normandie,FR,France,NOR,metropolitan region,48.8798704,0.1712529
4795,Nouvelle-Aquitaine,FR,France,NAQ,metropolitan region,45.7087182,0.626891
4799,Occitanie,FR,France,OCC,metropolitan region,43.8927232,3.2827625
5028,Oise,FR,France,60,metropolitan department,49.4117335,1.8668825
5029,Orne,FR,France,61,metropolitan department,48.5757644,-0.5024295
4816,Paris,FR,France,75C,metropolitan collectivity with special status,48.856614,2.3522219
5030,Pas-de-Calais,FR,France,62,metropolitan department,50.5144699,1.811498
4802,Pays-de-la-Loire,FR,France,PDL,metropolitan region,47.7632836,-0.3299687
4812,Provence-Alpes-Côte-d’Azur,FR,France,PAC,metropolitan region,43.9351691,6.0679194
5031,Puy-de-Dôme,FR,France,63,metropolitan department,45.7714185,2.6262676
5032,Pyrénées-Atlantiques,FR,France,64,metropolitan department,43.186817,-1.4417071
5034,Pyrénées-Orientales,FR,France,66,metropolitan department,42.6254179,1.8892958
5037,Rhône,FR,France,69,metropolitan department,44.93433,4.2409329
4821,Saint Pierre and Miquelon,FR,France,PM,overseas collectivity,46.8852,-56.3159
4794,Saint-Barthélemy,FR,France,BL,overseas collectivity,17.9005134,-62.8205871
4809,Saint-Martin,FR,France,MF,overseas collectivity,18.0708298,-63.0500809
5040,Saône-et-Loire,FR,France,71,metropolitan department,46.6554883,3.983505
5041,Sarthe,FR,France,72,metropolitan department,48.0262733,-0.3261317
5042,Savoie,FR,France,73,metropolitan department,45.494699,5.8432984
5045,Seine-et-Marne,FR,France,77,metropolitan department,48.6185394,2.4152561
5044,Seine-Maritime,FR,France,76,metropolitan department,49.6609681,0.3677561
5061,Seine-Saint-Denis,FR,France,93,metropolitan department,48.9099318,2.3057379
5048,Somme,FR,France,80,metropolitan department,49.9685922,1.7310696
5049,Tarn,FR,France,81,metropolitan department,43.7914977,1.6758893
5050,Tarn-et-Garonne,FR,France,82,metropolitan department,44.080895,1.0891657
5058,Territoire de Belfort,FR,France,90,metropolitan department,47.6293072,6.66962
5063,Val-d'Oise,FR,France,95,metropolitan department,49.0751818,1.8216914
5062,Val-de-Marne,FR,France,94,metropolitan department,48.7747004,2.3221039
5051,Var,FR,France,83,metropolitan department,43.395073,5.7342417
5052,Vaucluse,FR,France,84,metropolitan department,44.04475,4.6427718
5053,Vendée,FR,France,85,metropolitan department,46.6754103,-2.0298392
5054,Vienne,FR,France,86,metropolitan department,45.5221314,4.8453136
5056,Vosges,FR,France,88,metropolitan department,48.1630173,5.73556
4810,Wallis and Futuna,FR,France,WF,overseas collectivity,-14.2938,-178.1165
5057,Yonne,FR,France,89,metropolitan department,47.8547614,3.0339404
5046,Yvelines,FR,France,78,metropolitan department,48.7615301,1.2772949
2727,Estuaire,GA,Gabon,1,province,0.4432864,10.0807298
2726,Haut-Ogooué,GA,Gabon,2,province,-1.4762544,13.914399
2730,Moyen-Ogooué,GA,Gabon,3,province,-0.442784,10.439656
2731,Ngounié,GA,Gabon,4,province,-1.4930303,10.9807003
2725,Nyanga,GA,Gabon,5,province,-2.8821033,11.1617356
2724,Ogooué-Ivindo,GA,Gabon,6,province,0.8818311,13.1740348
2729,Ogooué-Lolo,GA,Gabon,7,province,-0.8844093,12.4380581
2728,Ogooué-Maritime,GA,Gabon,8,province,-1.3465975,9.7232673
2723,Woleu-Ntem,GA,Gabon,9,province,2.2989827,11.4466914
901,Abkhazia,GE,Georgia,AB,autonomous republic,43.0015544,41.023407
900,Adjara,GE,Georgia,AJ,autonomous republic,41.6005626,42.0688383
907,Guria,GE,Georgia,GU,region,41.9442736,42.0458091
905,Imereti,GE,Georgia,IM,region,42.230108,42.9008664
910,Kakheti,GE,Georgia,KA,region,41.6481602,45.6905554
897,Khelvachauri,GE,Georgia,29,municipality,41.5801926,41.6610742
904,Kvemo Kartli,GE,Georgia,KK,region,41.4791833,44.6560451
902,Mtskheta-Mtianeti,GE,Georgia,MM,region,42.1682185,44.6506058
909,Racha-Lechkhumi and Kvemo Svaneti,GE,Georgia,RL,region,42.6718873,43.0562836
908,Samegrelo-Zemo Svaneti,GE,Georgia,SZ,region,42.7352247,42.1689362
906,Samtskhe-Javakheti,GE,Georgia,SJ,region,41.5479296,43.27764
898,Senaki,GE,Georgia,50,municipality,42.269636,42.0656896
903,Shida Kartli,GE,Georgia,SK,region,42.0756944,43.9540462
899,Tbilisi,GE,Georgia,TB,city,41.7151377,44.827096
3006,Baden-Württemberg,DE,Germany,BW,land,48.6616037,9.3501336
3009,Bavaria,DE,Germany,BY,land,48.7904472,11.4978895
3010,Berlin,DE,Germany,BE,land,52.5200066,13.404954
3013,Brandenburg,DE,Germany,BB,land,52.4125287,12.5316444
3014,Bremen,DE,Germany,HB,land,53.0792962,8.8016936
3016,Hamburg,DE,Germany,HH,land,53.5510846,9.9936819
3018,Hessen,DE,Germany,HE,land,50.6520515,9.1624376
3008,Lower Saxony,DE,Germany,NI,land,52.6367036,9.8450766
3007,Mecklenburg-Vorpommern,DE,Germany,MV,land,53.6126505,12.4295953
3017,North Rhine-Westphalia,DE,Germany,NW,land,51.4332367,7.6615938
3019,Rhineland-Palatinate,DE,Germany,RP,land,50.118346,7.3089527
3020,Saarland,DE,Germany,SL,land,49.3964234,7.0229607
3021,Saxony,DE,Germany,SN,land,51.1045407,13.2017384
3011,Saxony-Anhalt,DE,Germany,ST,land,51.9502649,11.6922734
3005,Schleswig-Holstein,DE,Germany,SH,land,54.2193672,9.6961167
3015,Thuringia,DE,Germany,TH,land,51.0109892,10.845346
53,Ahafo,GH,Ghana,AF,region,7.5821372,-2.5497463
48,Ashanti,GH,Ghana,AH,region,6.7470436,-1.5208624
4959,Bono,GH,Ghana,BO,region,7.65,-2.5
4958,Bono East,GH,Ghana,BE,region,7.75,-1.05
52,Central,GH,Ghana,CP,region,5.5,-1
50,Eastern,GH,Ghana,EP,region,6.5,-0.5
54,Greater Accra,GH,Ghana,AA,region,5.8142836,0.0746767
4960,North East,GH,Ghana,NE,region,10.516667,-0.366667
51,Northern,GH,Ghana,NP,region,9.5,-1
4961,Oti,GH,Ghana,OT,region,7.9,0.3
4962,Savannah,GH,Ghana,SV,region,9.083333,-1.816667
55,Upper East,GH,Ghana,UE,region,10.7082499,-0.9820668
57,Upper West,GH,Ghana,UW,region,10.2529757,-2.1450245
56,Volta,GH,Ghana,TV,region,6.5781373,0.4502368
49,Western,GH,Ghana,WP,region,5.5,-2.5
4963,Western North,GH,Ghana,WN,region,6.3,-2.8
2116,Achaea,GR,Greece,13,regional unit,38.1158729,21.9522491
2123,Aetolia-Acarnania,GR,Greece,1,regional unit,38.7084386,21.3798928
2098,Arcadia,GR,Greece,12,prefecture,37.5557825,22.3337769
2105,Argolis,GR,Greece,11,regional unit,,
2122,Attica,GR,Greece,I,administrative region,38.0457568,23.8584737
2126,Boeotia,GR,Greece,3,regional unit,38.3663664,23.0965064
2128,Central Greece,GR,Greece,H,administrative region,38.6043984,22.7152131
2125,Central Macedonia,GR,Greece,B,administrative region,40.621173,23.1918021
2115,Chania,GR,Greece,94,regional unit,35.5138298,24.0180367
2124,Corfu,GR,Greece,22,prefecture,39.6249838,19.9223461
2129,Corinthia,GR,Greece,15,regional unit,,
2109,Crete,GR,Greece,M,administrative region,35.240117,24.8092691
2130,Drama,GR,Greece,52,regional unit,41.2340023,24.2390498
2120,East Attica,GR,Greece,A2,administrative region,38.2054093,23.8584737
2117,East Macedonia and Thrace,GR,Greece,A,administrative region,41.1295126,24.8877191
2110,Epirus,GR,Greece,D,administrative region,39.5706413,20.7642843
2101,Euboea,GR,Greece,4,prefecture,38.5236036,23.8584737
2102,Grevena,GR,Greece,51,prefecture,40.0837626,21.4273299
2099,Imathia ,GR,Greece,53,regional unit,40.6060067,22.1430215
2113,Ioannina,GR,Greece,33,regional unit,39.6650288,20.8537466
2131,Ionian Islands,GR,Greece,F,administrative region,37.9694898,21.3802372
2095,Karditsa,GR,Greece,41,regional unit,39.3640258,21.9214049
2100,Kastoria,GR,Greece,56,regional unit,40.5192691,21.2687171
2127,Kefalonia,GR,Greece,23,prefecture,38.1753675,20.5692179
2111,Kilkis,GR,Greece,57,regional unit,40.9937071,22.8753674
2112,Kozani,GR,Greece,58,prefecture,40.3005586,21.7887737
2106,Laconia,GR,Greece,16,prefecture,43.5278546,-71.4703509
2132,Larissa,GR,Greece,42,prefecture,39.6390224,22.4191254
2104,Lefkada,GR,Greece,24,regional unit,38.8333663,20.7069108
2107,Pella,GR,Greece,59,regional unit,40.9148039,22.1430215
2119,Peloponnese,GR,Greece,J,administrative region,37.5079472,22.37349
2114,Phthiotis,GR,Greece,6,prefecture,38.999785,22.3337769
2103,Preveza,GR,Greece,34,prefecture,38.9592649,20.7517155
2121,Serres,GR,Greece,62,prefecture,41.0863854,23.5483819
2118,South Aegean,GR,Greece,L,administrative region,37.0855302,25.1489215
2097,Thessaloniki,GR,Greece,54,regional unit,40.6400629,22.9444191
2096,West Greece,GR,Greece,G,administrative region,38.5115496,21.5706786
2108,West Macedonia,GR,Greece,C,administrative region,40.3004058,21.7903559
3867,Carriacou,GD,Grenada,10,dependency,12.4785888,-61.4493842
3865,Saint Andrew,GD,Grenada,1,parish,,
3869,Saint David,GD,Grenada,2,parish,,
3864,Saint George,GD,Grenada,3,parish,,
3868,Saint John,GD,Grenada,4,parish,30.1118331,-90.4879916
3866,Saint Mark,GD,Grenada,5,parish,40.5881863,-73.9495701
3863,Saint Patrick,GD,Grenada,6,parish,,
5254,Agana Heights,GU,Guam,,village,13.4657592,144.7319533
5255,Asan-Maina,GU,Guam,,village,13.4729124,144.7118041
5256,Barrigada,GU,Guam,,village,13.4641827,144.7882247
5257,Chalan Pago-Ordot,GU,Guam,,village,13.436998,144.7486708
5258,Dededo,GU,Guam,,village,13.522899,144.7989287
5259,Hågat,GU,Guam,,village,13.3852224,144.6399698
5265,Hagåtña,GU,Guam,,village,13.4729829,144.7274038
5261,Inarajan (Inalåhan),GU,Guam,,village,13.2762049,144.7203863
5263,Mangilao,GU,Guam,,village,13.4498509,144.7830268
5262,Merizo (Malesso),GU,Guam,,village,13.2686085,144.6579749
5264,Mongmong-Toto-Maite,GU,Guam,,village,13.4692201,144.7533808
5266,Piti,GU,Guam,,village,13.4647446,144.6876982
5267,Santa Rita (Sånta Rita-Sumai),GU,Guam,,village,13.3867874,144.6664227
5268,Sinajana,GU,Guam,,village,13.4609486,144.7461208
5269,Talofofo (Talo'fo'fo),GU,Guam,,village,13.3547144,144.7345973
5270,Tamuning,GU,Guam,,village,13.4944762,144.7804582
5260,Umatac (Humåtak),GU,Guam,,village,13.2945777,144.6538283
5271,Yigo,GU,Guam,,village,13.5729377,144.8231522
5272,Yona,GU,Guam,,village,13.410206,144.7555747
3671,Alta Verapaz ,GT,Guatemala,16,department,15.5942883,-90.1494988
3674,Baja Verapaz ,GT,Guatemala,15,department,15.1255867,-90.3748354
3675,Chimaltenango ,GT,Guatemala,4,department,14.5634787,-90.9820668
3666,Chiquimula ,GT,Guatemala,20,department,14.7514999,-89.4742177
3662,El Progreso ,GT,Guatemala,2,department,14.9388732,-90.0746767
3677,Escuintla ,GT,Guatemala,5,department,14.1910912,-90.9820668
3672,Guatemala ,GT,Guatemala,1,department,14.5649401,-90.5257823
3670,Huehuetenango ,GT,Guatemala,13,department,15.5879914,-91.6760691
3659,Izabal ,GT,Guatemala,18,department,15.4976517,-88.864698
3658,Jalapa ,GT,Guatemala,21,department,14.6121446,-89.9626799
3673,Jutiapa ,GT,Guatemala,22,department,14.1930802,-89.9253233
3669,Petén ,GT,Guatemala,17,department,16.912033,-90.2995785
3668,Quetzaltenango ,GT,Guatemala,9,department,14.792433,-91.714958
3657,Quiché ,GT,Guatemala,14,department,15.4983808,-90.9820668
3664,Retalhuleu ,GT,Guatemala,11,department,14.5245485,-91.685788
3676,Sacatepéquez ,GT,Guatemala,3,department,14.5178379,-90.7152749
3667,San Marcos ,GT,Guatemala,12,department,14.9309569,-91.9099238
3665,Santa Rosa ,GT,Guatemala,6,department,38.4405759,-122.7037543
3661,Sololá ,GT,Guatemala,7,department,14.748523,-91.2891036
3660,Suchitepéquez ,GT,Guatemala,10,department,14.4215982,-91.4048249
3663,Totonicapán ,GT,Guatemala,8,department,14.9173402,-91.3613923
5239,Zacapa,GT,Guatemala,19,department,15.0092828,-89.9253233
2672,Beyla,GN,Guinea,BE,prefecture,8.9198178,-8.3088441
2699,Boffa,GN,Guinea,BF,prefecture,10.1808254,-14.0391615
2676,Boké,GN,Guinea,B,administrative region,11.1864672,-14.1001326
2709,Boké,GN,Guinea,BK,prefecture,11.0847379,-14.3791912
2686,Conakry,GN,Guinea,C,governorate,9.6411855,-13.5784012
2705,Coyah,GN,Guinea,CO,prefecture,9.7715535,-13.3125299
2679,Dabola,GN,Guinea,DB,prefecture,10.7297806,-11.1107854
2706,Dalaba,GN,Guinea,DL,prefecture,10.6868176,-12.2490697
2688,Dinguiraye,GN,Guinea,DI,prefecture,11.6844222,-10.8000051
2681,Dubréka,GN,Guinea,DU,prefecture,9.7907348,-13.5147735
2682,Faranah,GN,Guinea,FA,prefecture,9.9057399,-10.8000051
2683,Forécariah,GN,Guinea,FO,prefecture,9.3886187,-13.0817903
2675,Fria,GN,Guinea,FR,prefecture,10.3674543,-13.5841871
2685,Gaoual,GN,Guinea,GA,prefecture,11.5762804,-13.3587288
2711,Guéckédou,GN,Guinea,GU,prefecture,8.5649688,-10.1311163
2704,Kankan,GN,Guinea,KA,prefecture,10.3034465,-9.3673084
2697,Kankan,GN,Guinea,K,administrative region,10.120923,-9.5450974
2710,Kérouané,GN,Guinea,KE,prefecture,9.2536643,-9.0128926
2701,Kindia,GN,Guinea,D,administrative region,10.1781694,-12.989615
2693,Kindia,GN,Guinea,KD,prefecture,10.1013292,-12.7135121
2691,Kissidougou,GN,Guinea,KS,prefecture,9.2252022,-10.0807298
2692,Koubia,GN,Guinea,KB,prefecture,11.582354,-11.8920237
2703,Koundara,GN,Guinea,KN,prefecture,12.4894021,-13.3067562
2695,Kouroussa,GN,Guinea,KO,prefecture,10.6489229,-9.8850586
2680,Labé,GN,Guinea,LA,prefecture,11.3541939,-12.3463875
2677,Labé,GN,Guinea,L,administrative region,11.3232042,-12.2891314
2690,Lélouma,GN,Guinea,LE,prefecture,11.183333,-12.933333
2708,Lola,GN,Guinea,LO,prefecture,7.9613818,-8.3964938
2702,Macenta,GN,Guinea,MC,prefecture,8.4615795,-9.2785583
2700,Mali,GN,Guinea,ML,prefecture,11.983709,-12.2547919
2698,Mamou,GN,Guinea,M,administrative region,10.5736024,-11.8891721
2689,Mamou,GN,Guinea,MM,prefecture,10.5736024,-11.8891721
2673,Mandiana,GN,Guinea,MD,prefecture,10.6172827,-8.6985716
2684,Nzérékoré,GN,Guinea,N,administrative region,8.038587,-8.8362755
2678,Nzérékoré,GN,Guinea,NZ,prefecture,7.7478359,-8.8252502
2694,Pita,GN,Guinea,PI,prefecture,10.8062086,-12.7135121
2707,Siguiri,GN,Guinea,SI,prefecture,11.4148113,-9.1788304
2687,Télimélé,GN,Guinea,TE,prefecture,10.9089364,-13.0299331
2696,Tougué,GN,Guinea,TO,prefecture,11.3841583,-11.6157773
2674,Yomou,GN,Guinea,YO,prefecture,7.5696279,-9.2591571
2720,Bafatá,GW,Guinea-Bissau,BA,region,12.1735243,-14.652952
2714,Biombo,GW,Guinea-Bissau,BM,region,11.8529061,-15.7351171
2722,Bolama,GW,Guinea-Bissau,BL,region,11.1480591,-16.1345705
2713,Cacheu,GW,Guinea-Bissau,CA,region,12.0551416,-16.0640179
2719,Gabú,GW,Guinea-Bissau,GA,region,11.8962488,-14.1001326
2721,Leste,GW,Guinea-Bissau,L,province,,
2717,Norte,GW,Guinea-Bissau,N,province,7.8721811,123.8857747
2718,Oio,GW,Guinea-Bissau,OI,region,12.2760709,-15.3131185
2715,Quinara,GW,Guinea-Bissau,QU,region,11.795562,-15.1726816
2716,Sul,GW,Guinea-Bissau,S,province,-10.2866578,20.7122465
2712,Tombali,GW,Guinea-Bissau,TO,region,11.3632696,-14.9856176
2764,Barima-Waini,GY,Guyana,BA,region,7.4882419,-59.6564494
2760,Cuyuni-Mazaruni,GY,Guyana,CU,region,6.4642141,-60.2110752
2767,Demerara-Mahaica,GY,Guyana,DE,region,6.546426,-58.0982046
2766,East Berbice-Corentyne,GY,Guyana,EB,region,2.7477922,-57.4627259
2768,Essequibo Islands-West Demerara,GY,Guyana,ES,region,6.5720132,-58.4629997
2762,Mahaica-Berbice,GY,Guyana,MA,region,6.238496,-57.9162555
2765,Pomeroon-Supenaam,GY,Guyana,PM,region,7.1294166,-58.9206295
2761,Potaro-Siparuni,GY,Guyana,PT,region,4.7855853,-59.2879977
2763,Upper Demerara-Berbice,GY,Guyana,UD,region,5.3064879,-58.1892921
2769,Upper Takutu-Upper Essequibo,GY,Guyana,UT,region,2.9239595,-58.7373634
4123,Artibonite,HT,Haiti,AR,department,19.362902,-72.4258145
4125,Centre,HT,Haiti,CE,department,32.8370251,-96.7773882
4119,Grand'Anse,HT,Haiti,GA,department,12.0166667,-61.7666667
4118,Nippes,HT,Haiti,NI,department,18.3990735,-73.4180211
4117,Nord,HT,Haiti,ND,department,43.190526,-89.437921
4121,Nord-Est,HT,Haiti,NE,department,19.4889723,-71.8571331
4126,Nord-Ouest,HT,Haiti,NO,department,19.8374009,-73.0405277
4120,Ouest,HT,Haiti,OU,department,45.4547249,-73.6502365
4122,Sud,HT,Haiti,SD,department,29.9213248,-90.0973772
4124,Sud-Est,HT,Haiti,SE,department,18.2783598,-72.3547915
4047,Atlántida,HN,Honduras,AT,department,15.6696283,-87.1422895
4045,Bay Islands,HN,Honduras,IB,department,16.4826614,-85.8793252
4041,Choluteca,HN,Honduras,CH,department,13.2504325,-87.1422895
4051,Colón,HN,Honduras,CL,department,15.6425965,-85.520024
4042,Comayagua,HN,Honduras,CM,department,14.5534828,-87.6186379
4049,Copán,HN,Honduras,CP,department,14.9360838,-88.864698
4046,Cortés,HN,Honduras,CR,department,15.4923508,-88.0900762
4043,El Paraíso,HN,Honduras,EP,department,13.9821294,-86.4996546
4052,Francisco Morazán,HN,Honduras,FM,department,14.45411,-87.0624261
4048,Gracias a Dios,HN,Honduras,GD,department,15.341806,-84.6060449
4044,Intibucá,HN,Honduras,IN,department,14.372734,-88.2461183
4058,La Paz,HN,Honduras,LP,department,-15.0892416,-68.5247149
4054,Lempira,HN,Honduras,LE,department,14.1887698,-88.556531
4056,Ocotepeque,HN,Honduras,OC,department,14.5170347,-89.0561532
4050,Olancho,HN,Honduras,OL,department,14.8067406,-85.7666645
4053,Santa Bárbara,HN,Honduras,SB,department,15.1202795,-88.4016041
4055,Valle,HN,Honduras,VA,department,13.5782936,-87.5791287
4057,Yoro,HN,Honduras,YO,department,15.2949679,-87.1422895
4889,Central and Western,HK,Hong Kong S.A.R.,HCW,district,22.28666,114.15497
4891,Eastern,HK,Hong Kong S.A.R.,HEA,district,22.28411,114.22414
4888,Islands,HK,Hong Kong S.A.R.,NIS,district,22.26114,113.94608
4895,Kowloon City,HK,Hong Kong S.A.R.,KKC,district,22.3282,114.19155
4898,Kwai Tsing,HK,Hong Kong S.A.R.,NKT,district,22.35488,114.08401
4897,Kwun Tong,HK,Hong Kong S.A.R.,KKT,district,22.31326,114.22581
4900,North,HK,Hong Kong S.A.R.,NNO,district,22.49471,114.13812
4887,Sai Kung,HK,Hong Kong S.A.R.,NSK,district,22.38143,114.27052
4901,Sha Tin,HK,Hong Kong S.A.R.,NST,district,22.38715,114.19534
4894,Sham Shui Po,HK,Hong Kong S.A.R.,KSS,district,22.33074,114.1622
4892,Southern,HK,Hong Kong S.A.R.,HSO,district,22.24725,114.15884
4885,Tai Po,HK,Hong Kong S.A.R.,NTP,district,22.45085,114.16422
4884,Tsuen Wan,HK,Hong Kong S.A.R.,NTW,district,22.36281,114.12907
4899,Tuen Mun,HK,Hong Kong S.A.R.,NTM,district,22.39163,113.9770885
4890,Wan Chai,HK,Hong Kong S.A.R.,HWC,district,22.27968,114.17168
4896,Wong Tai Sin,HK,Hong Kong S.A.R.,KWT,district,22.33353,114.19686
4893,Yau Tsim Mong,HK,Hong Kong S.A.R.,KYT,district,22.32138,114.1726
4883,Yuen Long,HK,Hong Kong S.A.R.,NYL,district,22.44559,114.02218
1048,Bács-Kiskun,HU,Hungary,BK,county,46.5661437,19.4272464
1055,Baranya,HU,Hungary,BA,county,46.0484585,18.2719173
1060,Békés,HU,Hungary,BE,county,46.6704899,21.0434996
